[# Keep this directory in Git
[
    {
        "storeId":  "7001",
        "displayName":  "SCARBOROUGH",
        "formattedAddr":  "428 Ellesmere Road, Scarborough, ON, M1R 4E6",
        "line1":  "428 Ellesmere Road",
        "city":  "Scarborough",
        "province":  "Ontario",
        "provinceCode":  "ON",
        "postalCode":  "M1R 4E6",
        "country":  "Canada",
        "phone":  "(416) 609-1800",
        "latitude":  43.7623,
        "longitude":  -79.2964,
        "url":  "/store/7001?latitude=43.7623\u0026longitude=-79.2964",
        "email":  "",
        "workshopEmail":  "printpacket_s7001@homedepot.com",
        "timeZone":  "America/Toronto",
        "bossEligible":  true,
        "bodfsEligible":  true,
        "bopisEligible":  true
    },
    {
        "storeId":  "7002",
        "displayName":  "WOODBRIDGE",
        "formattedAddr":  "140 Northview Blvd., Woodbridge, ON, L4L 8T2",
        "line1":  "140 Northview Blvd.",
        "city":  "Woodbridge",
        "province":  "Ontario",
        "provinceCode":  "ON",
        "postalCode":  "L4L 8T2",
        "country":  "Canada",
        "phone":  "(905) 851-1800",
        "latitude":  43.7918,
        "longitude":  -79.5446,
        "url":  "/store/7002?latitude=43.7918\u0026longitude=-79.5446",
        "email":  "",
        "workshopEmail":  "printpacket_s7002@homedepot.com",
        "timeZone":  "America/Toronto",
        "bossEligible":  true,
        "bodfsEligible":  true,
        "bopisEligible":  true
    },
    {
        "storeId":  "7003",
        "displayName":  "OAKVILLE",
        "formattedAddr":  "2555 Bristol Circle, Oakville, ON, L6H 5W9",
        "line1":  "2555 Bristol Circle",
        "city":  "Oakville",
        "province":  "Ontario",
        "provinceCode":  "ON",
        "postalCode":  "L6H 5W9",
        "country":  "Canada",
        "phone":  "(905) 829-5900",
        "latitude":  43.5181,
        "longitude":  -79.6834,
        "url":  "/store/7003?latitude=43.5181\u0026longitude=-79.6834",
        "email":  "",
        "workshopEmail":  "printpacket_s7003@homedepot.com",
        "timeZone":  "America/Toronto",
        "bossEligible":  true,
        "bodfsEligible":  true,
        "bopisEligible":  true
    },
    {
        "storeId":  "7004",
        "displayName":  "MARKHAM",
        "formattedAddr":  "3155 Highway #7, Markham, ON, L3R 0T9",
        "line1":  "3155 Highway #7",
        "city":  "Markham",
        "province":  "Ontario",
        "provinceCode":  "ON",
        "postalCode":  "L3R 0T9",
        "country":  "Canada",
        "phone":  "(905) 940-5900",
        "latitude":  43.850866,
        "longitude":  -79.356527,
        "url":  "/store/7004?latitude=43.850866\u0026longitude=-79.356527",
        "email":  "",
        "workshopEmail":  "printpacket_s7004@homedepot.com",
        "timeZone":  "America/Toronto",
        "bossEligible":  true,
        "bodfsEligible":  true,
        "bopisEligible":  true
    },
    {
        "storeId":  "7005",
        "displayName":  "WHITBY",
        "formattedAddr":  "1700 Victoria Street E., Whitby, ON, L1N 9K6",
        "line1":  "1700 Victoria Street E.",
        "city":  "Whitby",
        "province":  "Ontario",
        "provinceCode":  "ON",
        "postalCode":  "L1N 9K6",
        "country":  "Canada",
        "phone":  "(905) 571-5900",
        "latitude":  43.8722,
        "longitude":  -78.8908,
        "url":  "/store/7005?latitude=43.8722\u0026longitude=-78.8908",
        "email":  "",
        "workshopEmail":  "printpacket_s7005@homedepot.com",
        "timeZone":  "America/Toronto",
        "bossEligible":  true,
        "bodfsEligible":  true,
        "bopisEligible":  true
    },
    {
        "storeId":  "7006",
        "displayName":  "BRAMPTON",
        "formattedAddr":  "49 First Gulf Boulevard, Brampton, ON, L6W 4R8",
        "line1":  "49 First Gulf Boulevard",
        "city":  "Brampton",
        "province":  "Ontario",
        "provinceCode":  "ON",
        "postalCode":  "L6W 4R8",
        "country":  "Canada",
        "phone":  "(905) 457-1800",
        "latitude":  43.6798,
        "longitude":  -79.7164,
        "url":  "/store/7006?latitude=43.6798\u0026longitude=-79.7164",
        "email":  "",
        "workshopEmail":  "printpacket_s7006@homedepot.com",
        "timeZone":  "America/Toronto",
        "bossEligible":  true,
        "bodfsEligible":  true,
        "bopisEligible":  true
    },
    {
        "storeId":  "7007",
        "displayName":  "ANCASTER",
        "formattedAddr":  "122 Martindale Crescent, Ancaster, ON, L9K 1J9",
        "line1":  "122 Martindale Crescent",
        "city":  "Ancaster",
        "province":  "Ontario",
        "provinceCode":  "ON",
        "postalCode":  "L9K 1J9",
        "country":  "Canada",
        "phone":  "(905) 304-5900",
        "latitude":  43.2291,
        "longitude":  -79.9437,
        "url":  "/store/7007?latitude=43.2291\u0026longitude=-79.9437",
        "email":  "",
        "workshopEmail":  "printpacket_s7007@homedepot.com",
        "timeZone":  "America/Toronto",
        "bossEligible":  true,
        "bodfsEligible":  true,
        "bopisEligible":  true
    },
    {
        "storeId":  "7008",
        "displayName":  "HAMILTON",
        "formattedAddr":  "350 Centennial Parkway N., Hamilton, ON, L8E 2X4",
        "line1":  "350 Centennial Parkway N.",
        "city":  "Hamilton",
        "province":  "Ontario",
        "provinceCode":  "ON",
        "postalCode":  "L8E 2X4",
        "country":  "Canada",
        "phone":  "(905) 561-9755",
        "latitude":  43.2405,
        "longitude":  -79.7587,
        "url":  "/store/7008?latitude=43.2405\u0026longitude=-79.7587",
        "email":  "",
        "workshopEmail":  "printpacket_s7008@homedepot.com",
        "timeZone":  "America/Toronto",
        "bossEligible":  true,
        "bodfsEligible":  true,
        "bopisEligible":  true
    },
    {
        "storeId":  "7009",
        "displayName":  "NORTH LONDON",
        "formattedAddr":  "600 Fanshawe Park Road East, London, ON, N5X 1L1",
        "line1":  "600 Fanshawe Park Road East",
        "city":  "London",
        "province":  "Ontario",
        "provinceCode":  "ON",
        "postalCode":  "N5X 1L1",
        "country":  "Canada",
        "phone":  "(519) 850-5900",
        "latitude":  43.035,
        "longitude":  -81.2549,
        "url":  "/store/7009?latitude=43.035\u0026longitude=-81.2549",
        "email":  "",
        "workshopEmail":  "printpacket_s7009@homedepot.com",
        "timeZone":  "America/Toronto",
        "bossEligible":  true,
        "bodfsEligible":  true,
        "bopisEligible":  true
    },
    {
        "storeId":  "7011",
        "displayName":  "ETOBICOKE SOUTH",
        "formattedAddr":  "193 North Queen Street, Etobicoke, ON, M9C 1A7",
        "line1":  "193 North Queen Street",
        "city":  "Etobicoke",
        "province":  "Ontario",
        "provinceCode":  "ON",
        "postalCode":  "M9C 1A7",
        "country":  "Canada",
        "phone":  "(416) 626-9800",
        "latitude":  43.6159,
        "longitude":  -79.5567,
        "url":  "/store/7011?latitude=43.6159\u0026longitude=-79.5567",
        "email":  "",
        "workshopEmail":  "printpacket_s7011@homedepot.com",
        "timeZone":  "America/Toronto",
        "bossEligible":  true,
        "bodfsEligible":  true,
        "bopisEligible":  true
    },
    {
        "storeId":  "7012",
        "displayName":  "CURITY",
        "formattedAddr":  "7 Curity Avenue, Toronto, ON, M4B 3L8",
        "line1":  "7 Curity Avenue",
        "city":  "Toronto",
        "province":  "Ontario",
        "provinceCode":  "ON",
        "postalCode":  "M4B 3L8",
        "country":  "Canada",
        "phone":  "(416) 752-5900",
        "latitude":  43.7085001,
        "longitude":  -79.3127001,
        "url":  "/store/7012?latitude=43.7085001\u0026longitude=-79.3127001",
        "email":  "",
        "workshopEmail":  "printpacket_s7012@homedepot.com",
        "timeZone":  "America/Toronto",
        "bossEligible":  true,
        "bodfsEligible":  true,
        "bopisEligible":  true
    },
    {
        "storeId":  "7013",
        "displayName":  "STOCKYARDS",
        "formattedAddr":  "2121 St. Clair Ave. West, Toronto, ON, M6N 5A8",
        "line1":  "2121 St. Clair Ave. West",
        "city":  "Toronto",
        "province":  "Ontario",
        "provinceCode":  "ON",
        "postalCode":  "M6N 5A8",
        "country":  "Canada",
        "phone":  "(416) 766-2800",
        "latitude":  43.6719,
        "longitude":  -79.4702,
        "url":  "/store/7013?latitude=43.6719\u0026longitude=-79.4702",
        "email":  "",
        "workshopEmail":  "printpacket_s7013@homedepot.com",
        "timeZone":  "America/Toronto",
        "bossEligible":  true,
        "bodfsEligible":  true,
        "bopisEligible":  true
    },
    {
        "storeId":  "7017",
        "displayName":  "KITCHENER",
        "formattedAddr":  "100 Gateway Park Drive, Kitchener, ON, N2P 2J4",
        "line1":  "100 Gateway Park Drive",
        "city":  "Kitchener",
        "province":  "Ontario",
        "provinceCode":  "ON",
        "postalCode":  "N2P 2J4",
        "country":  "Canada",
        "phone":  "(519) 650-3900",
        "latitude":  43.4078,
        "longitude":  -80.3905,
        "url":  "/store/7017?latitude=43.4078\u0026longitude=-80.3905",
        "email":  "",
        "workshopEmail":  "printpacket_s7017@homedepot.com",
        "timeZone":  "America/Toronto",
        "bossEligible":  true,
        "bodfsEligible":  true,
        "bopisEligible":  true
    },
    {
        "storeId":  "7021",
        "displayName":  "BURLINGTON",
        "formattedAddr":  "3050 Davidson Court, Burlington, ON, L7M 4M9",
        "line1":  "3050 Davidson Court",
        "city":  "Burlington",
        "province":  "Ontario",
        "provinceCode":  "ON",
        "postalCode":  "L7M 4M9",
        "country":  "Canada",
        "phone":  "(905) 331-1700",
        "latitude":  43.3565,
        "longitude":  -79.8084,
        "url":  "/store/7021?latitude=43.3565\u0026longitude=-79.8084",
        "email":  "",
        "workshopEmail":  "printpacket_s7021@homedepot.com",
        "timeZone":  "America/Toronto",
        "bossEligible":  true,
        "bodfsEligible":  true,
        "bopisEligible":  true
    },
    {
        "storeId":  "7022",
        "displayName":  "SUDBURY",
        "formattedAddr":  "1500 Marcus Drive, Sudbury, ON, P3B 4K5",
        "line1":  "1500 Marcus Drive",
        "city":  "Sudbury",
        "province":  "Ontario",
        "provinceCode":  "ON",
        "postalCode":  "P3B 4K5",
        "country":  "Canada",
        "phone":  "(705) 525-2960",
        "latitude":  46.5022,
        "longitude":  -80.9406,
        "url":  "/store/7022?latitude=46.5022\u0026longitude=-80.9406",
        "email":  "",
        "workshopEmail":  "printpacket_s7022@homedepot.com",
        "timeZone":  "America/Toronto",
        "bossEligible":  true,
        "bodfsEligible":  true,
        "bopisEligible":  true
    },
    {
        "storeId":  "7023",
        "displayName":  "ST. CATHARINES",
        "formattedAddr":  "20 YMCA Drive, St. Catharines, ON, L2N 7R6",
        "line1":  "20 YMCA Drive",
        "city":  "St. Catharines",
        "province":  "Ontario",
        "provinceCode":  "ON",
        "postalCode":  "L2N 7R6",
        "country":  "Canada",
        "phone":  "(905) 937-5900",
        "latitude":  43.1795,
        "longitude":  -79.2484,
        "url":  "/store/7023?latitude=43.1795\u0026longitude=-79.2484",
        "email":  "",
        "workshopEmail":  "printpacket_s7023@homedepot.com",
        "timeZone":  "America/Toronto",
        "bossEligible":  true,
        "bodfsEligible":  true,
        "bopisEligible":  true
    },
    {
        "storeId":  "7024",
        "displayName":  "BARRIE",
        "formattedAddr":  "10 Barrie View Drive, Barrie, ON, L4N 8V4",
        "line1":  "10 Barrie View Drive",
        "city":  "Barrie",
        "province":  "Ontario",
        "provinceCode":  "ON",
        "postalCode":  "L4N 8V4",
        "country":  "Canada",
        "phone":  "(705) 733-2800",
        "latitude":  44.3399,
        "longitude":  -79.6892,
        "url":  "/store/7024?latitude=44.3399\u0026longitude=-79.6892",
        "email":  "",
        "workshopEmail":  "printpacket_s7024@homedepot.com",
        "timeZone":  "America/Toronto",
        "bossEligible":  true,
        "bodfsEligible":  true,
        "bopisEligible":  true
    },
    {
        "storeId":  "7025",
        "displayName":  "GLOUCESTER",
        "formattedAddr":  "1616 Cyrville Road, Gloucester, ON, K1B 3L8",
        "line1":  "1616 Cyrville Road",
        "city":  "Gloucester",
        "province":  "Ontario",
        "provinceCode":  "ON",
        "postalCode":  "K1B 3L8",
        "country":  "Canada",
        "phone":  "(613) 744-1700",
        "latitude":  45.4178,
        "longitude":  -75.6088,
        "url":  "/store/7025?latitude=45.4178\u0026longitude=-75.6088",
        "email":  "",
        "workshopEmail":  "printpacket_s7025@homedepot.com",
        "timeZone":  "America/Toronto",
        "bossEligible":  true,
        "bodfsEligible":  true,
        "bopisEligible":  true
    },
    {
        "storeId":  "7026",
        "displayName":  "NEPEAN",
        "formattedAddr":  "1900 Baseline Road, Ottawa, ON, K2C 0C6",
        "line1":  "1900 Baseline Road",
        "city":  "Ottawa",
        "province":  "Ontario",
        "provinceCode":  "ON",
        "postalCode":  "K2C 0C6",
        "country":  "Canada",
        "phone":  "(613) 723-5900",
        "latitude":  45.3533,
        "longitude":  -75.7582,
        "url":  "/store/7026?latitude=45.3533\u0026longitude=-75.7582",
        "email":  "",
        "workshopEmail":  "printpacket_s7026@homedepot.com",
        "timeZone":  "America/Toronto",
        "bossEligible":  true,
        "bodfsEligible":  true,
        "bopisEligible":  true
    },
    {
        "storeId":  "7027",
        "displayName":  "MORNINGSIDE",
        "formattedAddr":  "60 Grand Marshall Drive, Toronto, ON, M1B 5N6",
        "line1":  "60 Grand Marshall Drive",
        "city":  "Toronto",
        "province":  "Ontario",
        "provinceCode":  "ON",
        "postalCode":  "M1B 5N6",
        "country":  "Canada",
        "phone":  "(416) 283-3166",
        "latitude":  43.8012,
        "longitude":  -79.1948,
        "url":  "/store/7027?latitude=43.8012\u0026longitude=-79.1948",
        "email":  "",
        "workshopEmail":  "printpacket_s7027@homedepot.com",
        "timeZone":  "America/Toronto",
        "bossEligible":  true,
        "bodfsEligible":  true,
        "bopisEligible":  true
    },
    {
        "storeId":  "7001",
        "displayName":  "SCARBOROUGH",
        "formattedAddr":  "428 Ellesmere Road, Scarborough, ON, M1R 4E6",
        "line1":  "428 Ellesmere Road",
        "city":  "Scarborough",
        "province":  "Ontario",
        "provinceCode":  "ON",
        "postalCode":  "M1R 4E6",
        "country":  "Canada",
        "phone":  "(416) 609-1800",
        "latitude":  43.7623,
        "longitude":  -79.2964,
        "url":  "/store/7001?latitude=43.7623\u0026longitude=-79.2964",
        "email":  "",
        "workshopEmail":  "printpacket_s7001@homedepot.com",
        "timeZone":  "America/Toronto",
        "bossEligible":  true,
        "bodfsEligible":  true,
        "bopisEligible":  true
    },
    {
        "storeId":  "7002",
        "displayName":  "WOODBRIDGE",
        "formattedAddr":  "140 Northview Blvd., Woodbridge, ON, L4L 8T2",
        "line1":  "140 Northview Blvd.",
        "city":  "Woodbridge",
        "province":  "Ontario",
        "provinceCode":  "ON",
        "postalCode":  "L4L 8T2",
        "country":  "Canada",
        "phone":  "(905) 851-1800",
        "latitude":  43.7918,
        "longitude":  -79.5446,
        "url":  "/store/7002?latitude=43.7918\u0026longitude=-79.5446",
        "email":  "",
        "workshopEmail":  "printpacket_s7002@homedepot.com",
        "timeZone":  "America/Toronto",
        "bossEligible":  true,
        "bodfsEligible":  true,
        "bopisEligible":  true
    },
    {
        "storeId":  "7003",
        "displayName":  "OAKVILLE",
        "formattedAddr":  "2555 Bristol Circle, Oakville, ON, L6H 5W9",
        "line1":  "2555 Bristol Circle",
        "city":  "Oakville",
        "province":  "Ontario",
        "provinceCode":  "ON",
        "postalCode":  "L6H 5W9",
        "country":  "Canada",
        "phone":  "(905) 829-5900",
        "latitude":  43.5181,
        "longitude":  -79.6834,
        "url":  "/store/7003?latitude=43.5181\u0026longitude=-79.6834",
        "email":  "",
        "workshopEmail":  "printpacket_s7003@homedepot.com",
        "timeZone":  "America/Toronto",
        "bossEligible":  true,
        "bodfsEligible":  true,
        "bopisEligible":  true
    },
    {
        "storeId":  "7004",
        "displayName":  "MARKHAM",
        "formattedAddr":  "3155 Highway #7, Markham, ON, L3R 0T9",
        "line1":  "3155 Highway #7",
        "city":  "Markham",
        "province":  "Ontario",
        "provinceCode":  "ON",
        "postalCode":  "L3R 0T9",
        "country":  "Canada",
        "phone":  "(905) 940-5900",
        "latitude":  43.850866,
        "longitude":  -79.356527,
        "url":  "/store/7004?latitude=43.850866\u0026longitude=-79.356527",
        "email":  "",
        "workshopEmail":  "printpacket_s7004@homedepot.com",
        "timeZone":  "America/Toronto",
        "bossEligible":  true,
        "bodfsEligible":  true,
        "bopisEligible":  true
    },
    {
        "storeId":  "7005",
        "displayName":  "WHITBY",
        "formattedAddr":  "1700 Victoria Street E., Whitby, ON, L1N 9K6",
        "line1":  "1700 Victoria Street E.",
        "city":  "Whitby",
        "province":  "Ontario",
        "provinceCode":  "ON",
        "postalCode":  "L1N 9K6",
        "country":  "Canada",
        "phone":  "(905) 571-5900",
        "latitude":  43.8722,
        "longitude":  -78.8908,
        "url":  "/store/7005?latitude=43.8722\u0026longitude=-78.8908",
        "email":  "",
        "workshopEmail":  "printpacket_s7005@homedepot.com",
        "timeZone":  "America/Toronto",
        "bossEligible":  true,
        "bodfsEligible":  true,
        "bopisEligible":  true
    },
    {
        "storeId":  "7006",
        "displayName":  "BRAMPTON",
        "formattedAddr":  "49 First Gulf Boulevard, Brampton, ON, L6W 4R8",
        "line1":  "49 First Gulf Boulevard",
        "city":  "Brampton",
        "province":  "Ontario",
        "provinceCode":  "ON",
        "postalCode":  "L6W 4R8",
        "country":  "Canada",
        "phone":  "(905) 457-1800",
        "latitude":  43.6798,
        "longitude":  -79.7164,
        "url":  "/store/7006?latitude=43.6798\u0026longitude=-79.7164",
        "email":  "",
        "workshopEmail":  "printpacket_s7006@homedepot.com",
        "timeZone":  "America/Toronto",
        "bossEligible":  true,
        "bodfsEligible":  true,
        "bopisEligible":  true
    },
    {
        "storeId":  "7007",
        "displayName":  "ANCASTER",
        "formattedAddr":  "122 Martindale Crescent, Ancaster, ON, L9K 1J9",
        "line1":  "122 Martindale Crescent",
        "city":  "Ancaster",
        "province":  "Ontario",
        "provinceCode":  "ON",
        "postalCode":  "L9K 1J9",
        "country":  "Canada",
        "phone":  "(905) 304-5900",
        "latitude":  43.2291,
        "longitude":  -79.9437,
        "url":  "/store/7007?latitude=43.2291\u0026longitude=-79.9437",
        "email":  "",
        "workshopEmail":  "printpacket_s7007@homedepot.com",
        "timeZone":  "America/Toronto",
        "bossEligible":  true,
        "bodfsEligible":  true,
        "bopisEligible":  true
    },
    {
        "storeId":  "7008",
        "displayName":  "HAMILTON",
        "formattedAddr":  "350 Centennial Parkway N., Hamilton, ON, L8E 2X4",
        "line1":  "350 Centennial Parkway N.",
        "city":  "Hamilton",
        "province":  "Ontario",
        "provinceCode":  "ON",
        "postalCode":  "L8E 2X4",
        "country":  "Canada",
        "phone":  "(905) 561-9755",
        "latitude":  43.2405,
        "longitude":  -79.7587,
        "url":  "/store/7008?latitude=43.2405\u0026longitude=-79.7587",
        "email":  "",
        "workshopEmail":  "printpacket_s7008@homedepot.com",
        "timeZone":  "America/Toronto",
        "bossEligible":  true,
        "bodfsEligible":  true,
        "bopisEligible":  true
    },
    {
        "storeId":  "7009",
        "displayName":  "NORTH LONDON",
        "formattedAddr":  "600 Fanshawe Park Road East, London, ON, N5X 1L1",
        "line1":  "600 Fanshawe Park Road East",
        "city":  "London",
        "province":  "Ontario",
        "provinceCode":  "ON",
        "postalCode":  "N5X 1L1",
        "country":  "Canada",
        "phone":  "(519) 850-5900",
        "latitude":  43.035,
        "longitude":  -81.2549,
        "url":  "/store/7009?latitude=43.035\u0026longitude=-81.2549",
        "email":  "",
        "workshopEmail":  "printpacket_s7009@homedepot.com",
        "timeZone":  "America/Toronto",
        "bossEligible":  true,
        "bodfsEligible":  true,
        "bopisEligible":  true
    },
    {
        "storeId":  "7011",
        "displayName":  "ETOBICOKE SOUTH",
        "formattedAddr":  "193 North Queen Street, Etobicoke, ON, M9C 1A7",
        "line1":  "193 North Queen Street",
        "city":  "Etobicoke",
        "province":  "Ontario",
        "provinceCode":  "ON",
        "postalCode":  "M9C 1A7",
        "country":  "Canada",
        "phone":  "(416) 626-9800",
        "latitude":  43.6159,
        "longitude":  -79.5567,
        "url":  "/store/7011?latitude=43.6159\u0026longitude=-79.5567",
        "email":  "",
        "workshopEmail":  "printpacket_s7011@homedepot.com",
        "timeZone":  "America/Toronto",
        "bossEligible":  true,
        "bodfsEligible":  true,
        "bopisEligible":  true
    },
    {
        "storeId":  "7012",
        "displayName":  "CURITY",
        "formattedAddr":  "7 Curity Avenue, Toronto, ON, M4B 3L8",
        "line1":  "7 Curity Avenue",
        "city":  "Toronto",
        "province":  "Ontario",
        "provinceCode":  "ON",
        "postalCode":  "M4B 3L8",
        "country":  "Canada",
        "phone":  "(416) 752-5900",
        "latitude":  43.7085001,
        "longitude":  -79.3127001,
        "url":  "/store/7012?latitude=43.7085001\u0026longitude=-79.3127001",
        "email":  "",
        "workshopEmail":  "printpacket_s7012@homedepot.com",
        "timeZone":  "America/Toronto",
        "bossEligible":  true,
        "bodfsEligible":  true,
        "bopisEligible":  true
    },
    {
        "storeId":  "7013",
        "displayName":  "STOCKYARDS",
        "formattedAddr":  "2121 St. Clair Ave. West, Toronto, ON, M6N 5A8",
        "line1":  "2121 St. Clair Ave. West",
        "city":  "Toronto",
        "province":  "Ontario",
        "provinceCode":  "ON",
        "postalCode":  "M6N 5A8",
        "country":  "Canada",
        "phone":  "(416) 766-2800",
        "latitude":  43.6719,
        "longitude":  -79.4702,
        "url":  "/store/7013?latitude=43.6719\u0026longitude=-79.4702",
        "email":  "",
        "workshopEmail":  "printpacket_s7013@homedepot.com",
        "timeZone":  "America/Toronto",
        "bossEligible":  true,
        "bodfsEligible":  true,
        "bopisEligible":  true
    },
    {
        "storeId":  "7017",
        "displayName":  "KITCHENER",
        "formattedAddr":  "100 Gateway Park Drive, Kitchener, ON, N2P 2J4",
        "line1":  "100 Gateway Park Drive",
        "city":  "Kitchener",
        "province":  "Ontario",
        "provinceCode":  "ON",
        "postalCode":  "N2P 2J4",
        "country":  "Canada",
        "phone":  "(519) 650-3900",
        "latitude":  43.4078,
        "longitude":  -80.3905,
        "url":  "/store/7017?latitude=43.4078\u0026longitude=-80.3905",
        "email":  "",
        "workshopEmail":  "printpacket_s7017@homedepot.com",
        "timeZone":  "America/Toronto",
        "bossEligible":  true,
        "bodfsEligible":  true,
        "bopisEligible":  true
    },
    {
        "storeId":  "7021",
        "displayName":  "BURLINGTON",
        "formattedAddr":  "3050 Davidson Court, Burlington, ON, L7M 4M9",
        "line1":  "3050 Davidson Court",
        "city":  "Burlington",
        "province":  "Ontario",
        "provinceCode":  "ON",
        "postalCode":  "L7M 4M9",
        "country":  "Canada",
        "phone":  "(905) 331-1700",
        "latitude":  43.3565,
        "longitude":  -79.8084,
        "url":  "/store/7021?latitude=43.3565\u0026longitude=-79.8084",
        "email":  "",
        "workshopEmail":  "printpacket_s7021@homedepot.com",
        "timeZone":  "America/Toronto",
        "bossEligible":  true,
        "bodfsEligible":  true,
        "bopisEligible":  true
    },
    {
        "storeId":  "7022",
        "displayName":  "SUDBURY",
        "formattedAddr":  "1500 Marcus Drive, Sudbury, ON, P3B 4K5",
        "line1":  "1500 Marcus Drive",
        "city":  "Sudbury",
        "province":  "Ontario",
        "provinceCode":  "ON",
        "postalCode":  "P3B 4K5",
        "country":  "Canada",
        "phone":  "(705) 525-2960",
        "latitude":  46.5022,
        "longitude":  -80.9406,
        "url":  "/store/7022?latitude=46.5022\u0026longitude=-80.9406",
        "email":  "",
        "workshopEmail":  "printpacket_s7022@homedepot.com",
        "timeZone":  "America/Toronto",
        "bossEligible":  true,
        "bodfsEligible":  true,
        "bopisEligible":  true
    },
    {
        "storeId":  "7023",
        "displayName":  "ST. CATHARINES",
        "formattedAddr":  "20 YMCA Drive, St. Catharines, ON, L2N 7R6",
        "line1":  "20 YMCA Drive",
        "city":  "St. Catharines",
        "province":  "Ontario",
        "provinceCode":  "ON",
        "postalCode":  "L2N 7R6",
        "country":  "Canada",
        "phone":  "(905) 937-5900",
        "latitude":  43.1795,
        "longitude":  -79.2484,
        "url":  "/store/7023?latitude=43.1795\u0026longitude=-79.2484",
        "email":  "",
        "workshopEmail":  "printpacket_s7023@homedepot.com",
        "timeZone":  "America/Toronto",
        "bossEligible":  true,
        "bodfsEligible":  true,
        "bopisEligible":  true
    },
    {
        "storeId":  "7024",
        "displayName":  "BARRIE",
        "formattedAddr":  "10 Barrie View Drive, Barrie, ON, L4N 8V4",
        "line1":  "10 Barrie View Drive",
        "city":  "Barrie",
        "province":  "Ontario",
        "provinceCode":  "ON",
        "postalCode":  "L4N 8V4",
        "country":  "Canada",
        "phone":  "(705) 733-2800",
        "latitude":  44.3399,
        "longitude":  -79.6892,
        "url":  "/store/7024?latitude=44.3399\u0026longitude=-79.6892",
        "email":  "",
        "workshopEmail":  "printpacket_s7024@homedepot.com",
        "timeZone":  "America/Toronto",
        "bossEligible":  true,
        "bodfsEligible":  true,
        "bopisEligible":  true
    },
    {
        "storeId":  "7025",
        "displayName":  "GLOUCESTER",
        "formattedAddr":  "1616 Cyrville Road, Gloucester, ON, K1B 3L8",
        "line1":  "1616 Cyrville Road",
        "city":  "Gloucester",
        "province":  "Ontario",
        "provinceCode":  "ON",
        "postalCode":  "K1B 3L8",
        "country":  "Canada",
        "phone":  "(613) 744-1700",
        "latitude":  45.4178,
        "longitude":  -75.6088,
        "url":  "/store/7025?latitude=45.4178\u0026longitude=-75.6088",
        "email":  "",
        "workshopEmail":  "printpacket_s7025@homedepot.com",
        "timeZone":  "America/Toronto",
        "bossEligible":  true,
        "bodfsEligible":  true,
        "bopisEligible":  true
    },
    {
        "storeId":  "7026",
        "displayName":  "NEPEAN",
        "formattedAddr":  "1900 Baseline Road, Ottawa, ON, K2C 0C6",
        "line1":  "1900 Baseline Road",
        "city":  "Ottawa",
        "province":  "Ontario",
        "provinceCode":  "ON",
        "postalCode":  "K2C 0C6",
        "country":  "Canada",
        "phone":  "(613) 723-5900",
        "latitude":  45.3533,
        "longitude":  -75.7582,
        "url":  "/store/7026?latitude=45.3533\u0026longitude=-75.7582",
        "email":  "",
        "workshopEmail":  "printpacket_s7026@homedepot.com",
        "timeZone":  "America/Toronto",
        "bossEligible":  true,
        "bodfsEligible":  true,
        "bopisEligible":  true
    },
    {
        "storeId":  "7027",
        "displayName":  "MORNINGSIDE",
        "formattedAddr":  "60 Grand Marshall Drive, Toronto, ON, M1B 5N6",
        "line1":  "60 Grand Marshall Drive",
        "city":  "Toronto",
        "province":  "Ontario",
        "provinceCode":  "ON",
        "postalCode":  "M1B 5N6",
        "country":  "Canada",
        "phone":  "(416) 283-3166",
        "latitude":  43.8012,
        "longitude":  -79.1948,
        "url":  "/store/7027?latitude=43.8012\u0026longitude=-79.1948",
        "email":  "",
        "workshopEmail":  "printpacket_s7027@homedepot.com",
        "timeZone":  "America/Toronto",
        "bossEligible":  true,
        "bodfsEligible":  true,
        "bopisEligible":  true
    },
    {
        "storeId":  "7001",
        "displayName":  "SCARBOROUGH",
        "formattedAddr":  "428 Ellesmere Road, Scarborough, ON, M1R 4E6",
        "line1":  "428 Ellesmere Road",
        "city":  "Scarborough",
        "province":  "Ontario",
        "provinceCode":  "ON",
        "postalCode":  "M1R 4E6",
        "country":  "Canada",
        "phone":  "(416) 609-1800",
        "latitude":  43.7623,
        "longitude":  -79.2964,
        "url":  "/store/7001?latitude=43.7623\u0026longitude=-79.2964",
        "email":  "",
        "workshopEmail":  "printpacket_s7001@homedepot.com",
        "timeZone":  "America/Toronto",
        "bossEligible":  true,
        "bodfsEligible":  true,
        "bopisEligible":  true
    },
    {
        "storeId":  "7002",
        "displayName":  "WOODBRIDGE",
        "formattedAddr":  "140 Northview Blvd., Woodbridge, ON, L4L 8T2",
        "line1":  "140 Northview Blvd.",
        "city":  "Woodbridge",
        "province":  "Ontario",
        "provinceCode":  "ON",
        "postalCode":  "L4L 8T2",
        "country":  "Canada",
        "phone":  "(905) 851-1800",
        "latitude":  43.7918,
        "longitude":  -79.5446,
        "url":  "/store/7002?latitude=43.7918\u0026longitude=-79.5446",
        "email":  "",
        "workshopEmail":  "printpacket_s7002@homedepot.com",
        "timeZone":  "America/Toronto",
        "bossEligible":  true,
        "bodfsEligible":  true,
        "bopisEligible":  true
    },
    {
        "storeId":  "7003",
        "displayName":  "OAKVILLE",
        "formattedAddr":  "2555 Bristol Circle, Oakville, ON, L6H 5W9",
        "line1":  "2555 Bristol Circle",
        "city":  "Oakville",
        "province":  "Ontario",
        "provinceCode":  "ON",
        "postalCode":  "L6H 5W9",
        "country":  "Canada",
        "phone":  "(905) 829-5900",
        "latitude":  43.5181,
        "longitude":  -79.6834,
        "url":  "/store/7003?latitude=43.5181\u0026longitude=-79.6834",
        "email":  "",
        "workshopEmail":  "printpacket_s7003@homedepot.com",
        "timeZone":  "America/Toronto",
        "bossEligible":  true,
        "bodfsEligible":  true,
        "bopisEligible":  true
    },
    {
        "storeId":  "7004",
        "displayName":  "MARKHAM",
        "formattedAddr":  "3155 Highway #7, Markham, ON, L3R 0T9",
        "line1":  "3155 Highway #7",
        "city":  "Markham",
        "province":  "Ontario",
        "provinceCode":  "ON",
        "postalCode":  "L3R 0T9",
        "country":  "Canada",
        "phone":  "(905) 940-5900",
        "latitude":  43.850866,
        "longitude":  -79.356527,
        "url":  "/store/7004?latitude=43.850866\u0026longitude=-79.356527",
        "email":  "",
        "workshopEmail":  "printpacket_s7004@homedepot.com",
        "timeZone":  "America/Toronto",
        "bossEligible":  true,
        "bodfsEligible":  true,
        "bopisEligible":  true
    },
    {
        "storeId":  "7005",
        "displayName":  "WHITBY",
        "formattedAddr":  "1700 Victoria Street E., Whitby, ON, L1N 9K6",
        "line1":  "1700 Victoria Street E.",
        "city":  "Whitby",
        "province":  "Ontario",
        "provinceCode":  "ON",
        "postalCode":  "L1N 9K6",
        "country":  "Canada",
        "phone":  "(905) 571-5900",
        "latitude":  43.8722,
        "longitude":  -78.8908,
        "url":  "/store/7005?latitude=43.8722\u0026longitude=-78.8908",
        "email":  "",
        "workshopEmail":  "printpacket_s7005@homedepot.com",
        "timeZone":  "America/Toronto",
        "bossEligible":  true,
        "bodfsEligible":  true,
        "bopisEligible":  true
    },
    {
        "storeId":  "7006",
        "displayName":  "BRAMPTON",
        "formattedAddr":  "49 First Gulf Boulevard, Brampton, ON, L6W 4R8",
        "line1":  "49 First Gulf Boulevard",
        "city":  "Brampton",
        "province":  "Ontario",
        "provinceCode":  "ON",
        "postalCode":  "L6W 4R8",
        "country":  "Canada",
        "phone":  "(905) 457-1800",
        "latitude":  43.6798,
        "longitude":  -79.7164,
        "url":  "/store/7006?latitude=43.6798\u0026longitude=-79.7164",
        "email":  "",
        "workshopEmail":  "printpacket_s7006@homedepot.com",
        "timeZone":  "America/Toronto",
        "bossEligible":  true,
        "bodfsEligible":  true,
        "bopisEligible":  true
    },
    {
        "storeId":  "7007",
        "displayName":  "ANCASTER",
        "formattedAddr":  "122 Martindale Crescent, Ancaster, ON, L9K 1J9",
        "line1":  "122 Martindale Crescent",
        "city":  "Ancaster",
        "province":  "Ontario",
        "provinceCode":  "ON",
        "postalCode":  "L9K 1J9",
        "country":  "Canada",
        "phone":  "(905) 304-5900",
        "latitude":  43.2291,
        "longitude":  -79.9437,
        "url":  "/store/7007?latitude=43.2291\u0026longitude=-79.9437",
        "email":  "",
        "workshopEmail":  "printpacket_s7007@homedepot.com",
        "timeZone":  "America/Toronto",
        "bossEligible":  true,
        "bodfsEligible":  true,
        "bopisEligible":  true
    },
    {
        "storeId":  "7008",
        "displayName":  "HAMILTON",
        "formattedAddr":  "350 Centennial Parkway N., Hamilton, ON, L8E 2X4",
        "line1":  "350 Centennial Parkway N.",
        "city":  "Hamilton",
        "province":  "Ontario",
        "provinceCode":  "ON",
        "postalCode":  "L8E 2X4",
        "country":  "Canada",
        "phone":  "(905) 561-9755",
        "latitude":  43.2405,
        "longitude":  -79.7587,
        "url":  "/store/7008?latitude=43.2405\u0026longitude=-79.7587",
        "email":  "",
        "workshopEmail":  "printpacket_s7008@homedepot.com",
        "timeZone":  "America/Toronto",
        "bossEligible":  true,
        "bodfsEligible":  true,
        "bopisEligible":  true
    },
    {
        "storeId":  "7009",
        "displayName":  "NORTH LONDON",
        "formattedAddr":  "600 Fanshawe Park Road East, London, ON, N5X 1L1",
        "line1":  "600 Fanshawe Park Road East",
        "city":  "London",
        "province":  "Ontario",
        "provinceCode":  "ON",
        "postalCode":  "N5X 1L1",
        "country":  "Canada",
        "phone":  "(519) 850-5900",
        "latitude":  43.035,
        "longitude":  -81.2549,
        "url":  "/store/7009?latitude=43.035\u0026longitude=-81.2549",
        "email":  "",
        "workshopEmail":  "printpacket_s7009@homedepot.com",
        "timeZone":  "America/Toronto",
        "bossEligible":  true,
        "bodfsEligible":  true,
        "bopisEligible":  true
    },
    {
        "storeId":  "7011",
        "displayName":  "ETOBICOKE SOUTH",
        "formattedAddr":  "193 North Queen Street, Etobicoke, ON, M9C 1A7",
        "line1":  "193 North Queen Street",
        "city":  "Etobicoke",
        "province":  "Ontario",
        "provinceCode":  "ON",
        "postalCode":  "M9C 1A7",
        "country":  "Canada",
        "phone":  "(416) 626-9800",
        "latitude":  43.6159,
        "longitude":  -79.5567,
        "url":  "/store/7011?latitude=43.6159\u0026longitude=-79.5567",
        "email":  "",
        "workshopEmail":  "printpacket_s7011@homedepot.com",
        "timeZone":  "America/Toronto",
        "bossEligible":  true,
        "bodfsEligible":  true,
        "bopisEligible":  true
    },
    {
        "storeId":  "7012",
        "displayName":  "CURITY",
        "formattedAddr":  "7 Curity Avenue, Toronto, ON, M4B 3L8",
        "line1":  "7 Curity Avenue",
        "city":  "Toronto",
        "province":  "Ontario",
        "provinceCode":  "ON",
        "postalCode":  "M4B 3L8",
        "country":  "Canada",
        "phone":  "(416) 752-5900",
        "latitude":  43.7085001,
        "longitude":  -79.3127001,
        "url":  "/store/7012?latitude=43.7085001\u0026longitude=-79.3127001",
        "email":  "",
        "workshopEmail":  "printpacket_s7012@homedepot.com",
        "timeZone":  "America/Toronto",
        "bossEligible":  true,
        "bodfsEligible":  true,
        "bopisEligible":  true
    },
    {
        "storeId":  "7013",
        "displayName":  "STOCKYARDS",
        "formattedAddr":  "2121 St. Clair Ave. West, Toronto, ON, M6N 5A8",
        "line1":  "2121 St. Clair Ave. West",
        "city":  "Toronto",
        "province":  "Ontario",
        "provinceCode":  "ON",
        "postalCode":  "M6N 5A8",
        "country":  "Canada",
        "phone":  "(416) 766-2800",
        "latitude":  43.6719,
        "longitude":  -79.4702,
        "url":  "/store/7013?latitude=43.6719\u0026longitude=-79.4702",
        "email":  "",
        "workshopEmail":  "printpacket_s7013@homedepot.com",
        "timeZone":  "America/Toronto",
        "bossEligible":  true,
        "bodfsEligible":  true,
        "bopisEligible":  true
    },
    {
        "storeId":  "7017",
        "displayName":  "KITCHENER",
        "formattedAddr":  "100 Gateway Park Drive, Kitchener, ON, N2P 2J4",
        "line1":  "100 Gateway Park Drive",
        "city":  "Kitchener",
        "province":  "Ontario",
        "provinceCode":  "ON",
        "postalCode":  "N2P 2J4",
        "country":  "Canada",
        "phone":  "(519) 650-3900",
        "latitude":  43.4078,
        "longitude":  -80.3905,
        "url":  "/store/7017?latitude=43.4078\u0026longitude=-80.3905",
        "email":  "",
        "workshopEmail":  "printpacket_s7017@homedepot.com",
        "timeZone":  "America/Toronto",
        "bossEligible":  true,
        "bodfsEligible":  true,
        "bopisEligible":  true
    },
    {
        "storeId":  "7021",
        "displayName":  "BURLINGTON",
        "formattedAddr":  "3050 Davidson Court, Burlington, ON, L7M 4M9",
        "line1":  "3050 Davidson Court",
        "city":  "Burlington",
        "province":  "Ontario",
        "provinceCode":  "ON",
        "postalCode":  "L7M 4M9",
        "country":  "Canada",
        "phone":  "(905) 331-1700",
        "latitude":  43.3565,
        "longitude":  -79.8084,
        "url":  "/store/7021?latitude=43.3565\u0026longitude=-79.8084",
        "email":  "",
        "workshopEmail":  "printpacket_s7021@homedepot.com",
        "timeZone":  "America/Toronto",
        "bossEligible":  true,
        "bodfsEligible":  true,
        "bopisEligible":  true
    },
    {
        "storeId":  "7022",
        "displayName":  "SUDBURY",
        "formattedAddr":  "1500 Marcus Drive, Sudbury, ON, P3B 4K5",
        "line1":  "1500 Marcus Drive",
        "city":  "Sudbury",
        "province":  "Ontario",
        "provinceCode":  "ON",
        "postalCode":  "P3B 4K5",
        "country":  "Canada",
        "phone":  "(705) 525-2960",
        "latitude":  46.5022,
        "longitude":  -80.9406,
        "url":  "/store/7022?latitude=46.5022\u0026longitude=-80.9406",
        "email":  "",
        "workshopEmail":  "printpacket_s7022@homedepot.com",
        "timeZone":  "America/Toronto",
        "bossEligible":  true,
        "bodfsEligible":  true,
        "bopisEligible":  true
    },
    {
        "storeId":  "7023",
        "displayName":  "ST. CATHARINES",
        "formattedAddr":  "20 YMCA Drive, St. Catharines, ON, L2N 7R6",
        "line1":  "20 YMCA Drive",
        "city":  "St. Catharines",
        "province":  "Ontario",
        "provinceCode":  "ON",
        "postalCode":  "L2N 7R6",
        "country":  "Canada",
        "phone":  "(905) 937-5900",
        "latitude":  43.1795,
        "longitude":  -79.2484,
        "url":  "/store/7023?latitude=43.1795\u0026longitude=-79.2484",
        "email":  "",
        "workshopEmail":  "printpacket_s7023@homedepot.com",
        "timeZone":  "America/Toronto",
        "bossEligible":  true,
        "bodfsEligible":  true,
        "bopisEligible":  true
    },
    {
        "storeId":  "7024",
        "displayName":  "BARRIE",
        "formattedAddr":  "10 Barrie View Drive, Barrie, ON, L4N 8V4",
        "line1":  "10 Barrie View Drive",
        "city":  "Barrie",
        "province":  "Ontario",
        "provinceCode":  "ON",
        "postalCode":  "L4N 8V4",
        "country":  "Canada",
        "phone":  "(705) 733-2800",
        "latitude":  44.3399,
        "longitude":  -79.6892,
        "url":  "/store/7024?latitude=44.3399\u0026longitude=-79.6892",
        "email":  "",
        "workshopEmail":  "printpacket_s7024@homedepot.com",
        "timeZone":  "America/Toronto",
        "bossEligible":  true,
        "bodfsEligible":  true,
        "bopisEligible":  true
    },
    {
        "storeId":  "7025",
        "displayName":  "GLOUCESTER",
        "formattedAddr":  "1616 Cyrville Road, Gloucester, ON, K1B 3L8",
        "line1":  "1616 Cyrville Road",
        "city":  "Gloucester",
        "province":  "Ontario",
        "provinceCode":  "ON",
        "postalCode":  "K1B 3L8",
        "country":  "Canada",
        "phone":  "(613) 744-1700",
        "latitude":  45.4178,
        "longitude":  -75.6088,
        "url":  "/store/7025?latitude=45.4178\u0026longitude=-75.6088",
        "email":  "",
        "workshopEmail":  "printpacket_s7025@homedepot.com",
        "timeZone":  "America/Toronto",
        "bossEligible":  true,
        "bodfsEligible":  true,
        "bopisEligible":  true
    },
    {
        "storeId":  "7026",
        "displayName":  "NEPEAN",
        "formattedAddr":  "1900 Baseline Road, Ottawa, ON, K2C 0C6",
        "line1":  "1900 Baseline Road",
        "city":  "Ottawa",
        "province":  "Ontario",
        "provinceCode":  "ON",
        "postalCode":  "K2C 0C6",
        "country":  "Canada",
        "phone":  "(613) 723-5900",
        "latitude":  45.3533,
        "longitude":  -75.7582,
        "url":  "/store/7026?latitude=45.3533\u0026longitude=-75.7582",
        "email":  "",
        "workshopEmail":  "printpacket_s7026@homedepot.com",
        "timeZone":  "America/Toronto",
        "bossEligible":  true,
        "bodfsEligible":  true,
        "bopisEligible":  true
    },
    {
        "storeId":  "7027",
        "displayName":  "MORNINGSIDE",
        "formattedAddr":  "60 Grand Marshall Drive, Toronto, ON, M1B 5N6",
        "line1":  "60 Grand Marshall Drive",
        "city":  "Toronto",
        "province":  "Ontario",
        "provinceCode":  "ON",
        "postalCode":  "M1B 5N6",
        "country":  "Canada",
        "phone":  "(416) 283-3166",
        "latitude":  43.8012,
        "longitude":  -79.1948,
        "url":  "/store/7027?latitude=43.8012\u0026longitude=-79.1948",
        "email":  "",
        "workshopEmail":  "printpacket_s7027@homedepot.com",
        "timeZone":  "America/Toronto",
        "bossEligible":  true,
        "bodfsEligible":  true,
        "bopisEligible":  true
    },
    {
        "storeId":  "7001",
        "displayName":  "SCARBOROUGH",
        "formattedAddr":  "428 Ellesmere Road, Scarborough, ON, M1R 4E6",
        "line1":  "428 Ellesmere Road",
        "city":  "Scarborough",
        "province":  "Ontario",
        "provinceCode":  "ON",
        "postalCode":  "M1R 4E6",
        "country":  "Canada",
        "phone":  "(416) 609-1800",
        "latitude":  43.7623,
        "longitude":  -79.2964,
        "url":  "/store/7001?latitude=43.7623\u0026longitude=-79.2964",
        "email":  "",
        "workshopEmail":  "printpacket_s7001@homedepot.com",
        "timeZone":  "America/Toronto",
        "bossEligible":  true,
        "bodfsEligible":  true,
        "bopisEligible":  true
    },
    {
        "storeId":  "7002",
        "displayName":  "WOODBRIDGE",
        "formattedAddr":  "140 Northview Blvd., Woodbridge, ON, L4L 8T2",
        "line1":  "140 Northview Blvd.",
        "city":  "Woodbridge",
        "province":  "Ontario",
        "provinceCode":  "ON",
        "postalCode":  "L4L 8T2",
        "country":  "Canada",
        "phone":  "(905) 851-1800",
        "latitude":  43.7918,
        "longitude":  -79.5446,
        "url":  "/store/7002?latitude=43.7918\u0026longitude=-79.5446",
        "email":  "",
        "workshopEmail":  "printpacket_s7002@homedepot.com",
        "timeZone":  "America/Toronto",
        "bossEligible":  true,
        "bodfsEligible":  true,
        "bopisEligible":  true
    },
    {
        "storeId":  "7003",
        "displayName":  "OAKVILLE",
        "formattedAddr":  "2555 Bristol Circle, Oakville, ON, L6H 5W9",
        "line1":  "2555 Bristol Circle",
        "city":  "Oakville",
        "province":  "Ontario",
        "provinceCode":  "ON",
        "postalCode":  "L6H 5W9",
        "country":  "Canada",
        "phone":  "(905) 829-5900",
        "latitude":  43.5181,
        "longitude":  -79.6834,
        "url":  "/store/7003?latitude=43.5181\u0026longitude=-79.6834",
        "email":  "",
        "workshopEmail":  "printpacket_s7003@homedepot.com",
        "timeZone":  "America/Toronto",
        "bossEligible":  true,
        "bodfsEligible":  true,
        "bopisEligible":  true
    },
    {
        "storeId":  "7004",
        "displayName":  "MARKHAM",
        "formattedAddr":  "3155 Highway #7, Markham, ON, L3R 0T9",
        "line1":  "3155 Highway #7",
        "city":  "Markham",
        "province":  "Ontario",
        "provinceCode":  "ON",
        "postalCode":  "L3R 0T9",
        "country":  "Canada",
        "phone":  "(905) 940-5900",
        "latitude":  43.850866,
        "longitude":  -79.356527,
        "url":  "/store/7004?latitude=43.850866\u0026longitude=-79.356527",
        "email":  "",
        "workshopEmail":  "printpacket_s7004@homedepot.com",
        "timeZone":  "America/Toronto",
        "bossEligible":  true,
        "bodfsEligible":  true,
        "bopisEligible":  true
    },
    {
        "storeId":  "7005",
        "displayName":  "WHITBY",
        "formattedAddr":  "1700 Victoria Street E., Whitby, ON, L1N 9K6",
        "line1":  "1700 Victoria Street E.",
        "city":  "Whitby",
        "province":  "Ontario",
        "provinceCode":  "ON",
        "postalCode":  "L1N 9K6",
        "country":  "Canada",
        "phone":  "(905) 571-5900",
        "latitude":  43.8722,
        "longitude":  -78.8908,
        "url":  "/store/7005?latitude=43.8722\u0026longitude=-78.8908",
        "email":  "",
        "workshopEmail":  "printpacket_s7005@homedepot.com",
        "timeZone":  "America/Toronto",
        "bossEligible":  true,
        "bodfsEligible":  true,
        "bopisEligible":  true
    },
    {
        "storeId":  "7006",
        "displayName":  "BRAMPTON",
        "formattedAddr":  "49 First Gulf Boulevard, Brampton, ON, L6W 4R8",
        "line1":  "49 First Gulf Boulevard",
        "city":  "Brampton",
        "province":  "Ontario",
        "provinceCode":  "ON",
        "postalCode":  "L6W 4R8",
        "country":  "Canada",
        "phone":  "(905) 457-1800",
        "latitude":  43.6798,
        "longitude":  -79.7164,
        "url":  "/store/7006?latitude=43.6798\u0026longitude=-79.7164",
        "email":  "",
        "workshopEmail":  "printpacket_s7006@homedepot.com",
        "timeZone":  "America/Toronto",
        "bossEligible":  true,
        "bodfsEligible":  true,
        "bopisEligible":  true
    },
    {
        "storeId":  "7007",
        "displayName":  "ANCASTER",
        "formattedAddr":  "122 Martindale Crescent, Ancaster, ON, L9K 1J9",
        "line1":  "122 Martindale Crescent",
        "city":  "Ancaster",
        "province":  "Ontario",
        "provinceCode":  "ON",
        "postalCode":  "L9K 1J9",
        "country":  "Canada",
        "phone":  "(905) 304-5900",
        "latitude":  43.2291,
        "longitude":  -79.9437,
        "url":  "/store/7007?latitude=43.2291\u0026longitude=-79.9437",
        "email":  "",
        "workshopEmail":  "printpacket_s7007@homedepot.com",
        "timeZone":  "America/Toronto",
        "bossEligible":  true,
        "bodfsEligible":  true,
        "bopisEligible":  true
    },
    {
        "storeId":  "7008",
        "displayName":  "HAMILTON",
        "formattedAddr":  "350 Centennial Parkway N., Hamilton, ON, L8E 2X4",
        "line1":  "350 Centennial Parkway N.",
        "city":  "Hamilton",
        "province":  "Ontario",
        "provinceCode":  "ON",
        "postalCode":  "L8E 2X4",
        "country":  "Canada",
        "phone":  "(905) 561-9755",
        "latitude":  43.2405,
        "longitude":  -79.7587,
        "url":  "/store/7008?latitude=43.2405\u0026longitude=-79.7587",
        "email":  "",
        "workshopEmail":  "printpacket_s7008@homedepot.com",
        "timeZone":  "America/Toronto",
        "bossEligible":  true,
        "bodfsEligible":  true,
        "bopisEligible":  true
    },
    {
        "storeId":  "7009",
        "displayName":  "NORTH LONDON",
        "formattedAddr":  "600 Fanshawe Park Road East, London, ON, N5X 1L1",
        "line1":  "600 Fanshawe Park Road East",
        "city":  "London",
        "province":  "Ontario",
        "provinceCode":  "ON",
        "postalCode":  "N5X 1L1",
        "country":  "Canada",
        "phone":  "(519) 850-5900",
        "latitude":  43.035,
        "longitude":  -81.2549,
        "url":  "/store/7009?latitude=43.035\u0026longitude=-81.2549",
        "email":  "",
        "workshopEmail":  "printpacket_s7009@homedepot.com",
        "timeZone":  "America/Toronto",
        "bossEligible":  true,
        "bodfsEligible":  true,
        "bopisEligible":  true
    },
    {
        "storeId":  "7011",
        "displayName":  "ETOBICOKE SOUTH",
        "formattedAddr":  "193 North Queen Street, Etobicoke, ON, M9C 1A7",
        "line1":  "193 North Queen Street",
        "city":  "Etobicoke",
        "province":  "Ontario",
        "provinceCode":  "ON",
        "postalCode":  "M9C 1A7",
        "country":  "Canada",
        "phone":  "(416) 626-9800",
        "latitude":  43.6159,
        "longitude":  -79.5567,
        "url":  "/store/7011?latitude=43.6159\u0026longitude=-79.5567",
        "email":  "",
        "workshopEmail":  "printpacket_s7011@homedepot.com",
        "timeZone":  "America/Toronto",
        "bossEligible":  true,
        "bodfsEligible":  true,
        "bopisEligible":  true
    },
    {
        "storeId":  "7012",
        "displayName":  "CURITY",
        "formattedAddr":  "7 Curity Avenue, Toronto, ON, M4B 3L8",
        "line1":  "7 Curity Avenue",
        "city":  "Toronto",
        "province":  "Ontario",
        "provinceCode":  "ON",
        "postalCode":  "M4B 3L8",
        "country":  "Canada",
        "phone":  "(416) 752-5900",
        "latitude":  43.7085001,
        "longitude":  -79.3127001,
        "url":  "/store/7012?latitude=43.7085001\u0026longitude=-79.3127001",
        "email":  "",
        "workshopEmail":  "printpacket_s7012@homedepot.com",
        "timeZone":  "America/Toronto",
        "bossEligible":  true,
        "bodfsEligible":  true,
        "bopisEligible":  true
    },
    {
        "storeId":  "7013",
        "displayName":  "STOCKYARDS",
        "formattedAddr":  "2121 St. Clair Ave. West, Toronto, ON, M6N 5A8",
        "line1":  "2121 St. Clair Ave. West",
        "city":  "Toronto",
        "province":  "Ontario",
        "provinceCode":  "ON",
        "postalCode":  "M6N 5A8",
        "country":  "Canada",
        "phone":  "(416) 766-2800",
        "latitude":  43.6719,
        "longitude":  -79.4702,
        "url":  "/store/7013?latitude=43.6719\u0026longitude=-79.4702",
        "email":  "",
        "workshopEmail":  "printpacket_s7013@homedepot.com",
        "timeZone":  "America/Toronto",
        "bossEligible":  true,
        "bodfsEligible":  true,
        "bopisEligible":  true
    },
    {
        "storeId":  "7017",
        "displayName":  "KITCHENER",
        "formattedAddr":  "100 Gateway Park Drive, Kitchener, ON, N2P 2J4",
        "line1":  "100 Gateway Park Drive",
        "city":  "Kitchener",
        "province":  "Ontario",
        "provinceCode":  "ON",
        "postalCode":  "N2P 2J4",
        "country":  "Canada",
        "phone":  "(519) 650-3900",
        "latitude":  43.4078,
        "longitude":  -80.3905,
        "url":  "/store/7017?latitude=43.4078\u0026longitude=-80.3905",
        "email":  "",
        "workshopEmail":  "printpacket_s7017@homedepot.com",
        "timeZone":  "America/Toronto",
        "bossEligible":  true,
        "bodfsEligible":  true,
        "bopisEligible":  true
    },
    {
        "storeId":  "7021",
        "displayName":  "BURLINGTON",
        "formattedAddr":  "3050 Davidson Court, Burlington, ON, L7M 4M9",
        "line1":  "3050 Davidson Court",
        "city":  "Burlington",
        "province":  "Ontario",
        "provinceCode":  "ON",
        "postalCode":  "L7M 4M9",
        "country":  "Canada",
        "phone":  "(905) 331-1700",
        "latitude":  43.3565,
        "longitude":  -79.8084,
        "url":  "/store/7021?latitude=43.3565\u0026longitude=-79.8084",
        "email":  "",
        "workshopEmail":  "printpacket_s7021@homedepot.com",
        "timeZone":  "America/Toronto",
        "bossEligible":  true,
        "bodfsEligible":  true,
        "bopisEligible":  true
    },
    {
        "storeId":  "7022",
        "displayName":  "SUDBURY",
        "formattedAddr":  "1500 Marcus Drive, Sudbury, ON, P3B 4K5",
        "line1":  "1500 Marcus Drive",
        "city":  "Sudbury",
        "province":  "Ontario",
        "provinceCode":  "ON",
        "postalCode":  "P3B 4K5",
        "country":  "Canada",
        "phone":  "(705) 525-2960",
        "latitude":  46.5022,
        "longitude":  -80.9406,
        "url":  "/store/7022?latitude=46.5022\u0026longitude=-80.9406",
        "email":  "",
        "workshopEmail":  "printpacket_s7022@homedepot.com",
        "timeZone":  "America/Toronto",
        "bossEligible":  true,
        "bodfsEligible":  true,
        "bopisEligible":  true
    },
    {
        "storeId":  "7023",
        "displayName":  "ST. CATHARINES",
        "formattedAddr":  "20 YMCA Drive, St. Catharines, ON, L2N 7R6",
        "line1":  "20 YMCA Drive",
        "city":  "St. Catharines",
        "province":  "Ontario",
        "provinceCode":  "ON",
        "postalCode":  "L2N 7R6",
        "country":  "Canada",
        "phone":  "(905) 937-5900",
        "latitude":  43.1795,
        "longitude":  -79.2484,
        "url":  "/store/7023?latitude=43.1795\u0026longitude=-79.2484",
        "email":  "",
        "workshopEmail":  "printpacket_s7023@homedepot.com",
        "timeZone":  "America/Toronto",
        "bossEligible":  true,
        "bodfsEligible":  true,
        "bopisEligible":  true
    },
    {
        "storeId":  "7024",
        "displayName":  "BARRIE",
        "formattedAddr":  "10 Barrie View Drive, Barrie, ON, L4N 8V4",
        "line1":  "10 Barrie View Drive",
        "city":  "Barrie",
        "province":  "Ontario",
        "provinceCode":  "ON",
        "postalCode":  "L4N 8V4",
        "country":  "Canada",
        "phone":  "(705) 733-2800",
        "latitude":  44.3399,
        "longitude":  -79.6892,
        "url":  "/store/7024?latitude=44.3399\u0026longitude=-79.6892",
        "email":  "",
        "workshopEmail":  "printpacket_s7024@homedepot.com",
        "timeZone":  "America/Toronto",
        "bossEligible":  true,
        "bodfsEligible":  true,
        "bopisEligible":  true
    },
    {
        "storeId":  "7025",
        "displayName":  "GLOUCESTER",
        "formattedAddr":  "1616 Cyrville Road, Gloucester, ON, K1B 3L8",
        "line1":  "1616 Cyrville Road",
        "city":  "Gloucester",
        "province":  "Ontario",
        "provinceCode":  "ON",
        "postalCode":  "K1B 3L8",
        "country":  "Canada",
        "phone":  "(613) 744-1700",
        "latitude":  45.4178,
        "longitude":  -75.6088,
        "url":  "/store/7025?latitude=45.4178\u0026longitude=-75.6088",
        "email":  "",
        "workshopEmail":  "printpacket_s7025@homedepot.com",
        "timeZone":  "America/Toronto",
        "bossEligible":  true,
        "bodfsEligible":  true,
        "bopisEligible":  true
    },
    {
        "storeId":  "7026",
        "displayName":  "NEPEAN",
        "formattedAddr":  "1900 Baseline Road, Ottawa, ON, K2C 0C6",
        "line1":  "1900 Baseline Road",
        "city":  "Ottawa",
        "province":  "Ontario",
        "provinceCode":  "ON",
        "postalCode":  "K2C 0C6",
        "country":  "Canada",
        "phone":  "(613) 723-5900",
        "latitude":  45.3533,
        "longitude":  -75.7582,
        "url":  "/store/7026?latitude=45.3533\u0026longitude=-75.7582",
        "email":  "",
        "workshopEmail":  "printpacket_s7026@homedepot.com",
        "timeZone":  "America/Toronto",
        "bossEligible":  true,
        "bodfsEligible":  true,
        "bopisEligible":  true
    },
    {
        "storeId":  "7027",
        "displayName":  "MORNINGSIDE",
        "formattedAddr":  "60 Grand Marshall Drive, Toronto, ON, M1B 5N6",
        "line1":  "60 Grand Marshall Drive",
        "city":  "Toronto",
        "province":  "Ontario",
        "provinceCode":  "ON",
        "postalCode":  "M1B 5N6",
        "country":  "Canada",
        "phone":  "(416) 283-3166",
        "latitude":  43.8012,
        "longitude":  -79.1948,
        "url":  "/store/7027?latitude=43.8012\u0026longitude=-79.1948",
        "email":  "",
        "workshopEmail":  "printpacket_s7027@homedepot.com",
        "timeZone":  "America/Toronto",
        "bossEligible":  true,
        "bodfsEligible":  true,
        "bopisEligible":  true
    },
    {
        "storeId":  "7001",
        "displayName":  "SCARBOROUGH",
        "formattedAddr":  "428 Ellesmere Road, Scarborough, ON, M1R 4E6",
        "line1":  "428 Ellesmere Road",
        "city":  "Scarborough",
        "province":  "Ontario",
        "provinceCode":  "ON",
        "postalCode":  "M1R 4E6",
        "country":  "Canada",
        "phone":  "(416) 609-1800",
        "latitude":  43.7623,
        "longitude":  -79.2964,
        "url":  "/store/7001?latitude=43.7623\u0026longitude=-79.2964",
        "email":  "",
        "workshopEmail":  "printpacket_s7001@homedepot.com",
        "timeZone":  "America/Toronto",
        "bossEligible":  true,
        "bodfsEligible":  true,
        "bopisEligible":  true
    },
    {
        "storeId":  "7002",
        "displayName":  "WOODBRIDGE",
        "formattedAddr":  "140 Northview Blvd., Woodbridge, ON, L4L 8T2",
        "line1":  "140 Northview Blvd.",
        "city":  "Woodbridge",
        "province":  "Ontario",
        "provinceCode":  "ON",
        "postalCode":  "L4L 8T2",
        "country":  "Canada",
        "phone":  "(905) 851-1800",
        "latitude":  43.7918,
        "longitude":  -79.5446,
        "url":  "/store/7002?latitude=43.7918\u0026longitude=-79.5446",
        "email":  "",
        "workshopEmail":  "printpacket_s7002@homedepot.com",
        "timeZone":  "America/Toronto",
        "bossEligible":  true,
        "bodfsEligible":  true,
        "bopisEligible":  true
    },
    {
        "storeId":  "7003",
        "displayName":  "OAKVILLE",
        "formattedAddr":  "2555 Bristol Circle, Oakville, ON, L6H 5W9",
        "line1":  "2555 Bristol Circle",
        "city":  "Oakville",
        "province":  "Ontario",
        "provinceCode":  "ON",
        "postalCode":  "L6H 5W9",
        "country":  "Canada",
        "phone":  "(905) 829-5900",
        "latitude":  43.5181,
        "longitude":  -79.6834,
        "url":  "/store/7003?latitude=43.5181\u0026longitude=-79.6834",
        "email":  "",
        "workshopEmail":  "printpacket_s7003@homedepot.com",
        "timeZone":  "America/Toronto",
        "bossEligible":  true,
        "bodfsEligible":  true,
        "bopisEligible":  true
    },
    {
        "storeId":  "7004",
        "displayName":  "MARKHAM",
        "formattedAddr":  "3155 Highway #7, Markham, ON, L3R 0T9",
        "line1":  "3155 Highway #7",
        "city":  "Markham",
        "province":  "Ontario",
        "provinceCode":  "ON",
        "postalCode":  "L3R 0T9",
        "country":  "Canada",
        "phone":  "(905) 940-5900",
        "latitude":  43.850866,
        "longitude":  -79.356527,
        "url":  "/store/7004?latitude=43.850866\u0026longitude=-79.356527",
        "email":  "",
        "workshopEmail":  "printpacket_s7004@homedepot.com",
        "timeZone":  "America/Toronto",
        "bossEligible":  true,
        "bodfsEligible":  true,
        "bopisEligible":  true
    },
    {
        "storeId":  "7005",
        "displayName":  "WHITBY",
        "formattedAddr":  "1700 Victoria Street E., Whitby, ON, L1N 9K6",
        "line1":  "1700 Victoria Street E.",
        "city":  "Whitby",
        "province":  "Ontario",
        "provinceCode":  "ON",
        "postalCode":  "L1N 9K6",
        "country":  "Canada",
        "phone":  "(905) 571-5900",
        "latitude":  43.8722,
        "longitude":  -78.8908,
        "url":  "/store/7005?latitude=43.8722\u0026longitude=-78.8908",
        "email":  "",
        "workshopEmail":  "printpacket_s7005@homedepot.com",
        "timeZone":  "America/Toronto",
        "bossEligible":  true,
        "bodfsEligible":  true,
        "bopisEligible":  true
    },
    {
        "storeId":  "7006",
        "displayName":  "BRAMPTON",
        "formattedAddr":  "49 First Gulf Boulevard, Brampton, ON, L6W 4R8",
        "line1":  "49 First Gulf Boulevard",
        "city":  "Brampton",
        "province":  "Ontario",
        "provinceCode":  "ON",
        "postalCode":  "L6W 4R8",
        "country":  "Canada",
        "phone":  "(905) 457-1800",
        "latitude":  43.6798,
        "longitude":  -79.7164,
        "url":  "/store/7006?latitude=43.6798\u0026longitude=-79.7164",
        "email":  "",
        "workshopEmail":  "printpacket_s7006@homedepot.com",
        "timeZone":  "America/Toronto",
        "bossEligible":  true,
        "bodfsEligible":  true,
        "bopisEligible":  true
    },
    {
        "storeId":  "7007",
        "displayName":  "ANCASTER",
        "formattedAddr":  "122 Martindale Crescent, Ancaster, ON, L9K 1J9",
        "line1":  "122 Martindale Crescent",
        "city":  "Ancaster",
        "province":  "Ontario",
        "provinceCode":  "ON",
        "postalCode":  "L9K 1J9",
        "country":  "Canada",
        "phone":  "(905) 304-5900",
        "latitude":  43.2291,
        "longitude":  -79.9437,
        "url":  "/store/7007?latitude=43.2291\u0026longitude=-79.9437",
        "email":  "",
        "workshopEmail":  "printpacket_s7007@homedepot.com",
        "timeZone":  "America/Toronto",
        "bossEligible":  true,
        "bodfsEligible":  true,
        "bopisEligible":  true
    },
    {
        "storeId":  "7008",
        "displayName":  "HAMILTON",
        "formattedAddr":  "350 Centennial Parkway N., Hamilton, ON, L8E 2X4",
        "line1":  "350 Centennial Parkway N.",
        "city":  "Hamilton",
        "province":  "Ontario",
        "provinceCode":  "ON",
        "postalCode":  "L8E 2X4",
        "country":  "Canada",
        "phone":  "(905) 561-9755",
        "latitude":  43.2405,
        "longitude":  -79.7587,
        "url":  "/store/7008?latitude=43.2405\u0026longitude=-79.7587",
        "email":  "",
        "workshopEmail":  "printpacket_s7008@homedepot.com",
        "timeZone":  "America/Toronto",
        "bossEligible":  true,
        "bodfsEligible":  true,
        "bopisEligible":  true
    },
    {
        "storeId":  "7009",
        "displayName":  "NORTH LONDON",
        "formattedAddr":  "600 Fanshawe Park Road East, London, ON, N5X 1L1",
        "line1":  "600 Fanshawe Park Road East",
        "city":  "London",
        "province":  "Ontario",
        "provinceCode":  "ON",
        "postalCode":  "N5X 1L1",
        "country":  "Canada",
        "phone":  "(519) 850-5900",
        "latitude":  43.035,
        "longitude":  -81.2549,
        "url":  "/store/7009?latitude=43.035\u0026longitude=-81.2549",
        "email":  "",
        "workshopEmail":  "printpacket_s7009@homedepot.com",
        "timeZone":  "America/Toronto",
        "bossEligible":  true,
        "bodfsEligible":  true,
        "bopisEligible":  true
    },
    {
        "storeId":  "7011",
        "displayName":  "ETOBICOKE SOUTH",
        "formattedAddr":  "193 North Queen Street, Etobicoke, ON, M9C 1A7",
        "line1":  "193 North Queen Street",
        "city":  "Etobicoke",
        "province":  "Ontario",
        "provinceCode":  "ON",
        "postalCode":  "M9C 1A7",
        "country":  "Canada",
        "phone":  "(416) 626-9800",
        "latitude":  43.6159,
        "longitude":  -79.5567,
        "url":  "/store/7011?latitude=43.6159\u0026longitude=-79.5567",
        "email":  "",
        "workshopEmail":  "printpacket_s7011@homedepot.com",
        "timeZone":  "America/Toronto",
        "bossEligible":  true,
        "bodfsEligible":  true,
        "bopisEligible":  true
    },
    {
        "storeId":  "7012",
        "displayName":  "CURITY",
        "formattedAddr":  "7 Curity Avenue, Toronto, ON, M4B 3L8",
        "line1":  "7 Curity Avenue",
        "city":  "Toronto",
        "province":  "Ontario",
        "provinceCode":  "ON",
        "postalCode":  "M4B 3L8",
        "country":  "Canada",
        "phone":  "(416) 752-5900",
        "latitude":  43.7085001,
        "longitude":  -79.3127001,
        "url":  "/store/7012?latitude=43.7085001\u0026longitude=-79.3127001",
        "email":  "",
        "workshopEmail":  "printpacket_s7012@homedepot.com",
        "timeZone":  "America/Toronto",
        "bossEligible":  true,
        "bodfsEligible":  true,
        "bopisEligible":  true
    },
    {
        "storeId":  "7013",
        "displayName":  "STOCKYARDS",
        "formattedAddr":  "2121 St. Clair Ave. West, Toronto, ON, M6N 5A8",
        "line1":  "2121 St. Clair Ave. West",
        "city":  "Toronto",
        "province":  "Ontario",
        "provinceCode":  "ON",
        "postalCode":  "M6N 5A8",
        "country":  "Canada",
        "phone":  "(416) 766-2800",
        "latitude":  43.6719,
        "longitude":  -79.4702,
        "url":  "/store/7013?latitude=43.6719\u0026longitude=-79.4702",
        "email":  "",
        "workshopEmail":  "printpacket_s7013@homedepot.com",
        "timeZone":  "America/Toronto",
        "bossEligible":  true,
        "bodfsEligible":  true,
        "bopisEligible":  true
    },
    {
        "storeId":  "7017",
        "displayName":  "KITCHENER",
        "formattedAddr":  "100 Gateway Park Drive, Kitchener, ON, N2P 2J4",
        "line1":  "100 Gateway Park Drive",
        "city":  "Kitchener",
        "province":  "Ontario",
        "provinceCode":  "ON",
        "postalCode":  "N2P 2J4",
        "country":  "Canada",
        "phone":  "(519) 650-3900",
        "latitude":  43.4078,
        "longitude":  -80.3905,
        "url":  "/store/7017?latitude=43.4078\u0026longitude=-80.3905",
        "email":  "",
        "workshopEmail":  "printpacket_s7017@homedepot.com",
        "timeZone":  "America/Toronto",
        "bossEligible":  true,
        "bodfsEligible":  true,
        "bopisEligible":  true
    },
    {
        "storeId":  "7021",
        "displayName":  "BURLINGTON",
        "formattedAddr":  "3050 Davidson Court, Burlington, ON, L7M 4M9",
        "line1":  "3050 Davidson Court",
        "city":  "Burlington",
        "province":  "Ontario",
        "provinceCode":  "ON",
        "postalCode":  "L7M 4M9",
        "country":  "Canada",
        "phone":  "(905) 331-1700",
        "latitude":  43.3565,
        "longitude":  -79.8084,
        "url":  "/store/7021?latitude=43.3565\u0026longitude=-79.8084",
        "email":  "",
        "workshopEmail":  "printpacket_s7021@homedepot.com",
        "timeZone":  "America/Toronto",
        "bossEligible":  true,
        "bodfsEligible":  true,
        "bopisEligible":  true
    },
    {
        "storeId":  "7022",
        "displayName":  "SUDBURY",
        "formattedAddr":  "1500 Marcus Drive, Sudbury, ON, P3B 4K5",
        "line1":  "1500 Marcus Drive",
        "city":  "Sudbury",
        "province":  "Ontario",
        "provinceCode":  "ON",
        "postalCode":  "P3B 4K5",
        "country":  "Canada",
        "phone":  "(705) 525-2960",
        "latitude":  46.5022,
        "longitude":  -80.9406,
        "url":  "/store/7022?latitude=46.5022\u0026longitude=-80.9406",
        "email":  "",
        "workshopEmail":  "printpacket_s7022@homedepot.com",
        "timeZone":  "America/Toronto",
        "bossEligible":  true,
        "bodfsEligible":  true,
        "bopisEligible":  true
    },
    {
        "storeId":  "7023",
        "displayName":  "ST. CATHARINES",
        "formattedAddr":  "20 YMCA Drive, St. Catharines, ON, L2N 7R6",
        "line1":  "20 YMCA Drive",
        "city":  "St. Catharines",
        "province":  "Ontario",
        "provinceCode":  "ON",
        "postalCode":  "L2N 7R6",
        "country":  "Canada",
        "phone":  "(905) 937-5900",
        "latitude":  43.1795,
        "longitude":  -79.2484,
        "url":  "/store/7023?latitude=43.1795\u0026longitude=-79.2484",
        "email":  "",
        "workshopEmail":  "printpacket_s7023@homedepot.com",
        "timeZone":  "America/Toronto",
        "bossEligible":  true,
        "bodfsEligible":  true,
        "bopisEligible":  true
    },
    {
        "storeId":  "7024",
        "displayName":  "BARRIE",
        "formattedAddr":  "10 Barrie View Drive, Barrie, ON, L4N 8V4",
        "line1":  "10 Barrie View Drive",
        "city":  "Barrie",
        "province":  "Ontario",
        "provinceCode":  "ON",
        "postalCode":  "L4N 8V4",
        "country":  "Canada",
        "phone":  "(705) 733-2800",
        "latitude":  44.3399,
        "longitude":  -79.6892,
        "url":  "/store/7024?latitude=44.3399\u0026longitude=-79.6892",
        "email":  "",
        "workshopEmail":  "printpacket_s7024@homedepot.com",
        "timeZone":  "America/Toronto",
        "bossEligible":  true,
        "bodfsEligible":  true,
        "bopisEligible":  true
    },
    {
        "storeId":  "7025",
        "displayName":  "GLOUCESTER",
        "formattedAddr":  "1616 Cyrville Road, Gloucester, ON, K1B 3L8",
        "line1":  "1616 Cyrville Road",
        "city":  "Gloucester",
        "province":  "Ontario",
        "provinceCode":  "ON",
        "postalCode":  "K1B 3L8",
        "country":  "Canada",
        "phone":  "(613) 744-1700",
        "latitude":  45.4178,
        "longitude":  -75.6088,
        "url":  "/store/7025?latitude=45.4178\u0026longitude=-75.6088",
        "email":  "",
        "workshopEmail":  "printpacket_s7025@homedepot.com",
        "timeZone":  "America/Toronto",
        "bossEligible":  true,
        "bodfsEligible":  true,
        "bopisEligible":  true
    },
    {
        "storeId":  "7026",
        "displayName":  "NEPEAN",
        "formattedAddr":  "1900 Baseline Road, Ottawa, ON, K2C 0C6",
        "line1":  "1900 Baseline Road",
        "city":  "Ottawa",
        "province":  "Ontario",
        "provinceCode":  "ON",
        "postalCode":  "K2C 0C6",
        "country":  "Canada",
        "phone":  "(613) 723-5900",
        "latitude":  45.3533,
        "longitude":  -75.7582,
        "url":  "/store/7026?latitude=45.3533\u0026longitude=-75.7582",
        "email":  "",
        "workshopEmail":  "printpacket_s7026@homedepot.com",
        "timeZone":  "America/Toronto",
        "bossEligible":  true,
        "bodfsEligible":  true,
        "bopisEligible":  true
    },
    {
        "storeId":  "7027",
        "displayName":  "MORNINGSIDE",
        "formattedAddr":  "60 Grand Marshall Drive, Toronto, ON, M1B 5N6",
        "line1":  "60 Grand Marshall Drive",
        "city":  "Toronto",
        "province":  "Ontario",
        "provinceCode":  "ON",
        "postalCode":  "M1B 5N6",
        "country":  "Canada",
        "phone":  "(416) 283-3166",
        "latitude":  43.8012,
        "longitude":  -79.1948,
        "url":  "/store/7027?latitude=43.8012\u0026longitude=-79.1948",
        "email":  "",
        "workshopEmail":  "printpacket_s7027@homedepot.com",
        "timeZone":  "America/Toronto",
        "bossEligible":  true,
        "bodfsEligible":  true,
        "bopisEligible":  true
    },
    {
        "storeId":  "7001",
        "displayName":  "SCARBOROUGH",
        "formattedAddr":  "428 Ellesmere Road, Scarborough, ON, M1R 4E6",
        "line1":  "428 Ellesmere Road",
        "city":  "Scarborough",
        "province":  "Ontario",
        "provinceCode":  "ON",
        "postalCode":  "M1R 4E6",
        "country":  "Canada",
        "phone":  "(416) 609-1800",
        "latitude":  43.7623,
        "longitude":  -79.2964,
        "url":  "/store/7001?latitude=43.7623\u0026longitude=-79.2964",
        "email":  "",
        "workshopEmail":  "printpacket_s7001@homedepot.com",
        "timeZone":  "America/Toronto",
        "bossEligible":  true,
        "bodfsEligible":  true,
        "bopisEligible":  true
    },
    {
        "storeId":  "7002",
        "displayName":  "WOODBRIDGE",
        "formattedAddr":  "140 Northview Blvd., Woodbridge, ON, L4L 8T2",
        "line1":  "140 Northview Blvd.",
        "city":  "Woodbridge",
        "province":  "Ontario",
        "provinceCode":  "ON",
        "postalCode":  "L4L 8T2",
        "country":  "Canada",
        "phone":  "(905) 851-1800",
        "latitude":  43.7918,
        "longitude":  -79.5446,
        "url":  "/store/7002?latitude=43.7918\u0026longitude=-79.5446",
        "email":  "",
        "workshopEmail":  "printpacket_s7002@homedepot.com",
        "timeZone":  "America/Toronto",
        "bossEligible":  true,
        "bodfsEligible":  true,
        "bopisEligible":  true
    },
    {
        "storeId":  "7003",
        "displayName":  "OAKVILLE",
        "formattedAddr":  "2555 Bristol Circle, Oakville, ON, L6H 5W9",
        "line1":  "2555 Bristol Circle",
        "city":  "Oakville",
        "province":  "Ontario",
        "provinceCode":  "ON",
        "postalCode":  "L6H 5W9",
        "country":  "Canada",
        "phone":  "(905) 829-5900",
        "latitude":  43.5181,
        "longitude":  -79.6834,
        "url":  "/store/7003?latitude=43.5181\u0026longitude=-79.6834",
        "email":  "",
        "workshopEmail":  "printpacket_s7003@homedepot.com",
        "timeZone":  "America/Toronto",
        "bossEligible":  true,
        "bodfsEligible":  true,
        "bopisEligible":  true
    },
    {
        "storeId":  "7004",
        "displayName":  "MARKHAM",
        "formattedAddr":  "3155 Highway #7, Markham, ON, L3R 0T9",
        "line1":  "3155 Highway #7",
        "city":  "Markham",
        "province":  "Ontario",
        "provinceCode":  "ON",
        "postalCode":  "L3R 0T9",
        "country":  "Canada",
        "phone":  "(905) 940-5900",
        "latitude":  43.850866,
        "longitude":  -79.356527,
        "url":  "/store/7004?latitude=43.850866\u0026longitude=-79.356527",
        "email":  "",
        "workshopEmail":  "printpacket_s7004@homedepot.com",
        "timeZone":  "America/Toronto",
        "bossEligible":  true,
        "bodfsEligible":  true,
        "bopisEligible":  true
    },
    {
        "storeId":  "7005",
        "displayName":  "WHITBY",
        "formattedAddr":  "1700 Victoria Street E., Whitby, ON, L1N 9K6",
        "line1":  "1700 Victoria Street E.",
        "city":  "Whitby",
        "province":  "Ontario",
        "provinceCode":  "ON",
        "postalCode":  "L1N 9K6",
        "country":  "Canada",
        "phone":  "(905) 571-5900",
        "latitude":  43.8722,
        "longitude":  -78.8908,
        "url":  "/store/7005?latitude=43.8722\u0026longitude=-78.8908",
        "email":  "",
        "workshopEmail":  "printpacket_s7005@homedepot.com",
        "timeZone":  "America/Toronto",
        "bossEligible":  true,
        "bodfsEligible":  true,
        "bopisEligible":  true
    },
    {
        "storeId":  "7006",
        "displayName":  "BRAMPTON",
        "formattedAddr":  "49 First Gulf Boulevard, Brampton, ON, L6W 4R8",
        "line1":  "49 First Gulf Boulevard",
        "city":  "Brampton",
        "province":  "Ontario",
        "provinceCode":  "ON",
        "postalCode":  "L6W 4R8",
        "country":  "Canada",
        "phone":  "(905) 457-1800",
        "latitude":  43.6798,
        "longitude":  -79.7164,
        "url":  "/store/7006?latitude=43.6798\u0026longitude=-79.7164",
        "email":  "",
        "workshopEmail":  "printpacket_s7006@homedepot.com",
        "timeZone":  "America/Toronto",
        "bossEligible":  true,
        "bodfsEligible":  true,
        "bopisEligible":  true
    },
    {
        "storeId":  "7007",
        "displayName":  "ANCASTER",
        "formattedAddr":  "122 Martindale Crescent, Ancaster, ON, L9K 1J9",
        "line1":  "122 Martindale Crescent",
        "city":  "Ancaster",
        "province":  "Ontario",
        "provinceCode":  "ON",
        "postalCode":  "L9K 1J9",
        "country":  "Canada",
        "phone":  "(905) 304-5900",
        "latitude":  43.2291,
        "longitude":  -79.9437,
        "url":  "/store/7007?latitude=43.2291\u0026longitude=-79.9437",
        "email":  "",
        "workshopEmail":  "printpacket_s7007@homedepot.com",
        "timeZone":  "America/Toronto",
        "bossEligible":  true,
        "bodfsEligible":  true,
        "bopisEligible":  true
    },
    {
        "storeId":  "7008",
        "displayName":  "HAMILTON",
        "formattedAddr":  "350 Centennial Parkway N., Hamilton, ON, L8E 2X4",
        "line1":  "350 Centennial Parkway N.",
        "city":  "Hamilton",
        "province":  "Ontario",
        "provinceCode":  "ON",
        "postalCode":  "L8E 2X4",
        "country":  "Canada",
        "phone":  "(905) 561-9755",
        "latitude":  43.2405,
        "longitude":  -79.7587,
        "url":  "/store/7008?latitude=43.2405\u0026longitude=-79.7587",
        "email":  "",
        "workshopEmail":  "printpacket_s7008@homedepot.com",
        "timeZone":  "America/Toronto",
        "bossEligible":  true,
        "bodfsEligible":  true,
        "bopisEligible":  true
    },
    {
        "storeId":  "7009",
        "displayName":  "NORTH LONDON",
        "formattedAddr":  "600 Fanshawe Park Road East, London, ON, N5X 1L1",
        "line1":  "600 Fanshawe Park Road East",
        "city":  "London",
        "province":  "Ontario",
        "provinceCode":  "ON",
        "postalCode":  "N5X 1L1",
        "country":  "Canada",
        "phone":  "(519) 850-5900",
        "latitude":  43.035,
        "longitude":  -81.2549,
        "url":  "/store/7009?latitude=43.035\u0026longitude=-81.2549",
        "email":  "",
        "workshopEmail":  "printpacket_s7009@homedepot.com",
        "timeZone":  "America/Toronto",
        "bossEligible":  true,
        "bodfsEligible":  true,
        "bopisEligible":  true
    },
    {
        "storeId":  "7011",
        "displayName":  "ETOBICOKE SOUTH",
        "formattedAddr":  "193 North Queen Street, Etobicoke, ON, M9C 1A7",
        "line1":  "193 North Queen Street",
        "city":  "Etobicoke",
        "province":  "Ontario",
        "provinceCode":  "ON",
        "postalCode":  "M9C 1A7",
        "country":  "Canada",
        "phone":  "(416) 626-9800",
        "latitude":  43.6159,
        "longitude":  -79.5567,
        "url":  "/store/7011?latitude=43.6159\u0026longitude=-79.5567",
        "email":  "",
        "workshopEmail":  "printpacket_s7011@homedepot.com",
        "timeZone":  "America/Toronto",
        "bossEligible":  true,
        "bodfsEligible":  true,
        "bopisEligible":  true
    },
    {
        "storeId":  "7012",
        "displayName":  "CURITY",
        "formattedAddr":  "7 Curity Avenue, Toronto, ON, M4B 3L8",
        "line1":  "7 Curity Avenue",
        "city":  "Toronto",
        "province":  "Ontario",
        "provinceCode":  "ON",
        "postalCode":  "M4B 3L8",
        "country":  "Canada",
        "phone":  "(416) 752-5900",
        "latitude":  43.7085001,
        "longitude":  -79.3127001,
        "url":  "/store/7012?latitude=43.7085001\u0026longitude=-79.3127001",
        "email":  "",
        "workshopEmail":  "printpacket_s7012@homedepot.com",
        "timeZone":  "America/Toronto",
        "bossEligible":  true,
        "bodfsEligible":  true,
        "bopisEligible":  true
    },
    {
        "storeId":  "7013",
        "displayName":  "STOCKYARDS",
        "formattedAddr":  "2121 St. Clair Ave. West, Toronto, ON, M6N 5A8",
        "line1":  "2121 St. Clair Ave. West",
        "city":  "Toronto",
        "province":  "Ontario",
        "provinceCode":  "ON",
        "postalCode":  "M6N 5A8",
        "country":  "Canada",
        "phone":  "(416) 766-2800",
        "latitude":  43.6719,
        "longitude":  -79.4702,
        "url":  "/store/7013?latitude=43.6719\u0026longitude=-79.4702",
        "email":  "",
        "workshopEmail":  "printpacket_s7013@homedepot.com",
        "timeZone":  "America/Toronto",
        "bossEligible":  true,
        "bodfsEligible":  true,
        "bopisEligible":  true
    },
    {
        "storeId":  "7017",
        "displayName":  "KITCHENER",
        "formattedAddr":  "100 Gateway Park Drive, Kitchener, ON, N2P 2J4",
        "line1":  "100 Gateway Park Drive",
        "city":  "Kitchener",
        "province":  "Ontario",
        "provinceCode":  "ON",
        "postalCode":  "N2P 2J4",
        "country":  "Canada",
        "phone":  "(519) 650-3900",
        "latitude":  43.4078,
        "longitude":  -80.3905,
        "url":  "/store/7017?latitude=43.4078\u0026longitude=-80.3905",
        "email":  "",
        "workshopEmail":  "printpacket_s7017@homedepot.com",
        "timeZone":  "America/Toronto",
        "bossEligible":  true,
        "bodfsEligible":  true,
        "bopisEligible":  true
    },
    {
        "storeId":  "7021",
        "displayName":  "BURLINGTON",
        "formattedAddr":  "3050 Davidson Court, Burlington, ON, L7M 4M9",
        "line1":  "3050 Davidson Court",
        "city":  "Burlington",
        "province":  "Ontario",
        "provinceCode":  "ON",
        "postalCode":  "L7M 4M9",
        "country":  "Canada",
        "phone":  "(905) 331-1700",
        "latitude":  43.3565,
        "longitude":  -79.8084,
        "url":  "/store/7021?latitude=43.3565\u0026longitude=-79.8084",
        "email":  "",
        "workshopEmail":  "printpacket_s7021@homedepot.com",
        "timeZone":  "America/Toronto",
        "bossEligible":  true,
        "bodfsEligible":  true,
        "bopisEligible":  true
    },
    {
        "storeId":  "7022",
        "displayName":  "SUDBURY",
        "formattedAddr":  "1500 Marcus Drive, Sudbury, ON, P3B 4K5",
        "line1":  "1500 Marcus Drive",
        "city":  "Sudbury",
        "province":  "Ontario",
        "provinceCode":  "ON",
        "postalCode":  "P3B 4K5",
        "country":  "Canada",
        "phone":  "(705) 525-2960",
        "latitude":  46.5022,
        "longitude":  -80.9406,
        "url":  "/store/7022?latitude=46.5022\u0026longitude=-80.9406",
        "email":  "",
        "workshopEmail":  "printpacket_s7022@homedepot.com",
        "timeZone":  "America/Toronto",
        "bossEligible":  true,
        "bodfsEligible":  true,
        "bopisEligible":  true
    },
    {
        "storeId":  "7023",
        "displayName":  "ST. CATHARINES",
        "formattedAddr":  "20 YMCA Drive, St. Catharines, ON, L2N 7R6",
        "line1":  "20 YMCA Drive",
        "city":  "St. Catharines",
        "province":  "Ontario",
        "provinceCode":  "ON",
        "postalCode":  "L2N 7R6",
        "country":  "Canada",
        "phone":  "(905) 937-5900",
        "latitude":  43.1795,
        "longitude":  -79.2484,
        "url":  "/store/7023?latitude=43.1795\u0026longitude=-79.2484",
        "email":  "",
        "workshopEmail":  "printpacket_s7023@homedepot.com",
        "timeZone":  "America/Toronto",
        "bossEligible":  true,
        "bodfsEligible":  true,
        "bopisEligible":  true
    },
    {
        "storeId":  "7024",
        "displayName":  "BARRIE",
        "formattedAddr":  "10 Barrie View Drive, Barrie, ON, L4N 8V4",
        "line1":  "10 Barrie View Drive",
        "city":  "Barrie",
        "province":  "Ontario",
        "provinceCode":  "ON",
        "postalCode":  "L4N 8V4",
        "country":  "Canada",
        "phone":  "(705) 733-2800",
        "latitude":  44.3399,
        "longitude":  -79.6892,
        "url":  "/store/7024?latitude=44.3399\u0026longitude=-79.6892",
        "email":  "",
        "workshopEmail":  "printpacket_s7024@homedepot.com",
        "timeZone":  "America/Toronto",
        "bossEligible":  true,
        "bodfsEligible":  true,
        "bopisEligible":  true
    },
    {
        "storeId":  "7025",
        "displayName":  "GLOUCESTER",
        "formattedAddr":  "1616 Cyrville Road, Gloucester, ON, K1B 3L8",
        "line1":  "1616 Cyrville Road",
        "city":  "Gloucester",
        "province":  "Ontario",
        "provinceCode":  "ON",
        "postalCode":  "K1B 3L8",
        "country":  "Canada",
        "phone":  "(613) 744-1700",
        "latitude":  45.4178,
        "longitude":  -75.6088,
        "url":  "/store/7025?latitude=45.4178\u0026longitude=-75.6088",
        "email":  "",
        "workshopEmail":  "printpacket_s7025@homedepot.com",
        "timeZone":  "America/Toronto",
        "bossEligible":  true,
        "bodfsEligible":  true,
        "bopisEligible":  true
    },
    {
        "storeId":  "7026",
        "displayName":  "NEPEAN",
        "formattedAddr":  "1900 Baseline Road, Ottawa, ON, K2C 0C6",
        "line1":  "1900 Baseline Road",
        "city":  "Ottawa",
        "province":  "Ontario",
        "provinceCode":  "ON",
        "postalCode":  "K2C 0C6",
        "country":  "Canada",
        "phone":  "(613) 723-5900",
        "latitude":  45.3533,
        "longitude":  -75.7582,
        "url":  "/store/7026?latitude=45.3533\u0026longitude=-75.7582",
        "email":  "",
        "workshopEmail":  "printpacket_s7026@homedepot.com",
        "timeZone":  "America/Toronto",
        "bossEligible":  true,
        "bodfsEligible":  true,
        "bopisEligible":  true
    },
    {
        "storeId":  "7027",
        "displayName":  "MORNINGSIDE",
        "formattedAddr":  "60 Grand Marshall Drive, Toronto, ON, M1B 5N6",
        "line1":  "60 Grand Marshall Drive",
        "city":  "Toronto",
        "province":  "Ontario",
        "provinceCode":  "ON",
        "postalCode":  "M1B 5N6",
        "country":  "Canada",
        "phone":  "(416) 283-3166",
        "latitude":  43.8012,
        "longitude":  -79.1948,
        "url":  "/store/7027?latitude=43.8012\u0026longitude=-79.1948",
        "email":  "",
        "workshopEmail":  "printpacket_s7027@homedepot.com",
        "timeZone":  "America/Toronto",
        "bossEligible":  true,
        "bodfsEligible":  true,
        "bopisEligible":  true
    },
    {
        "storeId":  "7001",
        "displayName":  "SCARBOROUGH",
        "formattedAddr":  "428 Ellesmere Road, Scarborough, ON, M1R 4E6",
        "line1":  "428 Ellesmere Road",
        "city":  "Scarborough",
        "province":  "Ontario",
        "provinceCode":  "ON",
        "postalCode":  "M1R 4E6",
        "country":  "Canada",
        "phone":  "(416) 609-1800",
        "latitude":  43.7623,
        "longitude":  -79.2964,
        "url":  "/store/7001?latitude=43.7623\u0026longitude=-79.2964",
        "email":  "",
        "workshopEmail":  "printpacket_s7001@homedepot.com",
        "timeZone":  "America/Toronto",
        "bossEligible":  true,
        "bodfsEligible":  true,
        "bopisEligible":  true
    },
    {
        "storeId":  "7002",
        "displayName":  "WOODBRIDGE",
        "formattedAddr":  "140 Northview Blvd., Woodbridge, ON, L4L 8T2",
        "line1":  "140 Northview Blvd.",
        "city":  "Woodbridge",
        "province":  "Ontario",
        "provinceCode":  "ON",
        "postalCode":  "L4L 8T2",
        "country":  "Canada",
        "phone":  "(905) 851-1800",
        "latitude":  43.7918,
        "longitude":  -79.5446,
        "url":  "/store/7002?latitude=43.7918\u0026longitude=-79.5446",
        "email":  "",
        "workshopEmail":  "printpacket_s7002@homedepot.com",
        "timeZone":  "America/Toronto",
        "bossEligible":  true,
        "bodfsEligible":  true,
        "bopisEligible":  true
    },
    {
        "storeId":  "7003",
        "displayName":  "OAKVILLE",
        "formattedAddr":  "2555 Bristol Circle, Oakville, ON, L6H 5W9",
        "line1":  "2555 Bristol Circle",
        "city":  "Oakville",
        "province":  "Ontario",
        "provinceCode":  "ON",
        "postalCode":  "L6H 5W9",
        "country":  "Canada",
        "phone":  "(905) 829-5900",
        "latitude":  43.5181,
        "longitude":  -79.6834,
        "url":  "/store/7003?latitude=43.5181\u0026longitude=-79.6834",
        "email":  "",
        "workshopEmail":  "printpacket_s7003@homedepot.com",
        "timeZone":  "America/Toronto",
        "bossEligible":  true,
        "bodfsEligible":  true,
        "bopisEligible":  true
    },
    {
        "storeId":  "7004",
        "displayName":  "MARKHAM",
        "formattedAddr":  "3155 Highway #7, Markham, ON, L3R 0T9",
        "line1":  "3155 Highway #7",
        "city":  "Markham",
        "province":  "Ontario",
        "provinceCode":  "ON",
        "postalCode":  "L3R 0T9",
        "country":  "Canada",
        "phone":  "(905) 940-5900",
        "latitude":  43.850866,
        "longitude":  -79.356527,
        "url":  "/store/7004?latitude=43.850866\u0026longitude=-79.356527",
        "email":  "",
        "workshopEmail":  "printpacket_s7004@homedepot.com",
        "timeZone":  "America/Toronto",
        "bossEligible":  true,
        "bodfsEligible":  true,
        "bopisEligible":  true
    },
    {
        "storeId":  "7005",
        "displayName":  "WHITBY",
        "formattedAddr":  "1700 Victoria Street E., Whitby, ON, L1N 9K6",
        "line1":  "1700 Victoria Street E.",
        "city":  "Whitby",
        "province":  "Ontario",
        "provinceCode":  "ON",
        "postalCode":  "L1N 9K6",
        "country":  "Canada",
        "phone":  "(905) 571-5900",
        "latitude":  43.8722,
        "longitude":  -78.8908,
        "url":  "/store/7005?latitude=43.8722\u0026longitude=-78.8908",
        "email":  "",
        "workshopEmail":  "printpacket_s7005@homedepot.com",
        "timeZone":  "America/Toronto",
        "bossEligible":  true,
        "bodfsEligible":  true,
        "bopisEligible":  true
    },
    {
        "storeId":  "7006",
        "displayName":  "BRAMPTON",
        "formattedAddr":  "49 First Gulf Boulevard, Brampton, ON, L6W 4R8",
        "line1":  "49 First Gulf Boulevard",
        "city":  "Brampton",
        "province":  "Ontario",
        "provinceCode":  "ON",
        "postalCode":  "L6W 4R8",
        "country":  "Canada",
        "phone":  "(905) 457-1800",
        "latitude":  43.6798,
        "longitude":  -79.7164,
        "url":  "/store/7006?latitude=43.6798\u0026longitude=-79.7164",
        "email":  "",
        "workshopEmail":  "printpacket_s7006@homedepot.com",
        "timeZone":  "America/Toronto",
        "bossEligible":  true,
        "bodfsEligible":  true,
        "bopisEligible":  true
    },
    {
        "storeId":  "7007",
        "displayName":  "ANCASTER",
        "formattedAddr":  "122 Martindale Crescent, Ancaster, ON, L9K 1J9",
        "line1":  "122 Martindale Crescent",
        "city":  "Ancaster",
        "province":  "Ontario",
        "provinceCode":  "ON",
        "postalCode":  "L9K 1J9",
        "country":  "Canada",
        "phone":  "(905) 304-5900",
        "latitude":  43.2291,
        "longitude":  -79.9437,
        "url":  "/store/7007?latitude=43.2291\u0026longitude=-79.9437",
        "email":  "",
        "workshopEmail":  "printpacket_s7007@homedepot.com",
        "timeZone":  "America/Toronto",
        "bossEligible":  true,
        "bodfsEligible":  true,
        "bopisEligible":  true
    },
    {
        "storeId":  "7008",
        "displayName":  "HAMILTON",
        "formattedAddr":  "350 Centennial Parkway N., Hamilton, ON, L8E 2X4",
        "line1":  "350 Centennial Parkway N.",
        "city":  "Hamilton",
        "province":  "Ontario",
        "provinceCode":  "ON",
        "postalCode":  "L8E 2X4",
        "country":  "Canada",
        "phone":  "(905) 561-9755",
        "latitude":  43.2405,
        "longitude":  -79.7587,
        "url":  "/store/7008?latitude=43.2405\u0026longitude=-79.7587",
        "email":  "",
        "workshopEmail":  "printpacket_s7008@homedepot.com",
        "timeZone":  "America/Toronto",
        "bossEligible":  true,
        "bodfsEligible":  true,
        "bopisEligible":  true
    },
    {
        "storeId":  "7009",
        "displayName":  "NORTH LONDON",
        "formattedAddr":  "600 Fanshawe Park Road East, London, ON, N5X 1L1",
        "line1":  "600 Fanshawe Park Road East",
        "city":  "London",
        "province":  "Ontario",
        "provinceCode":  "ON",
        "postalCode":  "N5X 1L1",
        "country":  "Canada",
        "phone":  "(519) 850-5900",
        "latitude":  43.035,
        "longitude":  -81.2549,
        "url":  "/store/7009?latitude=43.035\u0026longitude=-81.2549",
        "email":  "",
        "workshopEmail":  "printpacket_s7009@homedepot.com",
        "timeZone":  "America/Toronto",
        "bossEligible":  true,
        "bodfsEligible":  true,
        "bopisEligible":  true
    },
    {
        "storeId":  "7011",
        "displayName":  "ETOBICOKE SOUTH",
        "formattedAddr":  "193 North Queen Street, Etobicoke, ON, M9C 1A7",
        "line1":  "193 North Queen Street",
        "city":  "Etobicoke",
        "province":  "Ontario",
        "provinceCode":  "ON",
        "postalCode":  "M9C 1A7",
        "country":  "Canada",
        "phone":  "(416) 626-9800",
        "latitude":  43.6159,
        "longitude":  -79.5567,
        "url":  "/store/7011?latitude=43.6159\u0026longitude=-79.5567",
        "email":  "",
        "workshopEmail":  "printpacket_s7011@homedepot.com",
        "timeZone":  "America/Toronto",
        "bossEligible":  true,
        "bodfsEligible":  true,
        "bopisEligible":  true
    },
    {
        "storeId":  "7012",
        "displayName":  "CURITY",
        "formattedAddr":  "7 Curity Avenue, Toronto, ON, M4B 3L8",
        "line1":  "7 Curity Avenue",
        "city":  "Toronto",
        "province":  "Ontario",
        "provinceCode":  "ON",
        "postalCode":  "M4B 3L8",
        "country":  "Canada",
        "phone":  "(416) 752-5900",
        "latitude":  43.7085001,
        "longitude":  -79.3127001,
        "url":  "/store/7012?latitude=43.7085001\u0026longitude=-79.3127001",
        "email":  "",
        "workshopEmail":  "printpacket_s7012@homedepot.com",
        "timeZone":  "America/Toronto",
        "bossEligible":  true,
        "bodfsEligible":  true,
        "bopisEligible":  true
    },
    {
        "storeId":  "7013",
        "displayName":  "STOCKYARDS",
        "formattedAddr":  "2121 St. Clair Ave. West, Toronto, ON, M6N 5A8",
        "line1":  "2121 St. Clair Ave. West",
        "city":  "Toronto",
        "province":  "Ontario",
        "provinceCode":  "ON",
        "postalCode":  "M6N 5A8",
        "country":  "Canada",
        "phone":  "(416) 766-2800",
        "latitude":  43.6719,
        "longitude":  -79.4702,
        "url":  "/store/7013?latitude=43.6719\u0026longitude=-79.4702",
        "email":  "",
        "workshopEmail":  "printpacket_s7013@homedepot.com",
        "timeZone":  "America/Toronto",
        "bossEligible":  true,
        "bodfsEligible":  true,
        "bopisEligible":  true
    },
    {
        "storeId":  "7017",
        "displayName":  "KITCHENER",
        "formattedAddr":  "100 Gateway Park Drive, Kitchener, ON, N2P 2J4",
        "line1":  "100 Gateway Park Drive",
        "city":  "Kitchener",
        "province":  "Ontario",
        "provinceCode":  "ON",
        "postalCode":  "N2P 2J4",
        "country":  "Canada",
        "phone":  "(519) 650-3900",
        "latitude":  43.4078,
        "longitude":  -80.3905,
        "url":  "/store/7017?latitude=43.4078\u0026longitude=-80.3905",
        "email":  "",
        "workshopEmail":  "printpacket_s7017@homedepot.com",
        "timeZone":  "America/Toronto",
        "bossEligible":  true,
        "bodfsEligible":  true,
        "bopisEligible":  true
    },
    {
        "storeId":  "7021",
        "displayName":  "BURLINGTON",
        "formattedAddr":  "3050 Davidson Court, Burlington, ON, L7M 4M9",
        "line1":  "3050 Davidson Court",
        "city":  "Burlington",
        "province":  "Ontario",
        "provinceCode":  "ON",
        "postalCode":  "L7M 4M9",
        "country":  "Canada",
        "phone":  "(905) 331-1700",
        "latitude":  43.3565,
        "longitude":  -79.8084,
        "url":  "/store/7021?latitude=43.3565\u0026longitude=-79.8084",
        "email":  "",
        "workshopEmail":  "printpacket_s7021@homedepot.com",
        "timeZone":  "America/Toronto",
        "bossEligible":  true,
        "bodfsEligible":  true,
        "bopisEligible":  true
    },
    {
        "storeId":  "7022",
        "displayName":  "SUDBURY",
        "formattedAddr":  "1500 Marcus Drive, Sudbury, ON, P3B 4K5",
        "line1":  "1500 Marcus Drive",
        "city":  "Sudbury",
        "province":  "Ontario",
        "provinceCode":  "ON",
        "postalCode":  "P3B 4K5",
        "country":  "Canada",
        "phone":  "(705) 525-2960",
        "latitude":  46.5022,
        "longitude":  -80.9406,
        "url":  "/store/7022?latitude=46.5022\u0026longitude=-80.9406",
        "email":  "",
        "workshopEmail":  "printpacket_s7022@homedepot.com",
        "timeZone":  "America/Toronto",
        "bossEligible":  true,
        "bodfsEligible":  true,
        "bopisEligible":  true
    },